,address,zipcode,city,state,latitude,longitude,amount
0,2540 Monaco Parkway,80207,Denver,CO,39.754117,-104.912051,564340
1,2578 Magnolia Street,,,,,,
2,219 Galapago Street,80223,Denver,CO,39.71976,-104.996683,453275
3,3107 Green Court,,,,,,
4,3507 Osage Street,80211,Denver,CO,39.765899,-105.005613,1058536
5,4653 East 25th Avenue,,,,,,
6,828 East 22nd Avenue,80205,Denver,CO,39.749252,-104.976121,501833
7,1035 Pearl Street,80203,Denver,CO,39.732781,-104.980154,
8,2093 Ogden Street,80205,Denver,CO,39.749255,-104.974735,390161
9,2060 Emerson Street,80205,Denver,CO,39.748623,-104.975422,839426
10,4435 East 16th Avenue,80220,Denver,CO,39.741707,-104.934555,695510
11,994 South Pennsylvania Street,80209,Denver,CO,39.698572,-104.981301,817826
12,90 Galapago Street,80223,Denver,CO,39.7178,-104.996,535897
13,1570 Humboldt Street,80218,Denver,CO,39.74134,-104.969342,
14,1776 Race Street,80206,Denver,CO,39.744433,-104.963125,
15,3854 Lowell Boulevard,80211,Denver,CO,39.770609,-105.034266,744948
16,3546 Shoshone Street,,,,,,
17,686 South Gilpin Street,80209,Denver,CO,39.704095,-104.967168,842210
18,2105 West 31st Avenue,80211,Denver,CO,39.761,-105.011969,753343
19,2820 Yosemite Street,,,,,,
20,2807 West 23rd Avenue,80211,Denver,CO,39.751595,-105.022407,630850
21,2810 Arapahoe Street,80205,Denver,CO,39.759132,-104.980583,1212765
22,1203 West 37th Avenue,80211,Denver,CO,39.768214,-105.000842,411080
23,1585 Krameria Street,80220,Denver,CO,39.741726,-104.916662,730005
24,2244 Dexter Street,,,,,,
25,697 West Ellsworth Avenue,,,,,,
26,1565 Gilpin Street,80218,Denver,CO,39.741271,-104.967557,782000
27,4586 Zuni Street,80211,Denver,CO,39.779871,-105.015517,551989
28,1135 Elizabeth Street,80206,Denver,CO,39.734453,-104.95661,
29,808 South Logan Street,80209,Denver,CO,39.701681,-104.982415,591349
30,2206 Gaylord Street,80205,Denver,CO,39.749646,-104.960638,834375
31,4930 East Donald Avenue,,,,,,
32,2130 Meade Street,80211,Denver,CO,39.749368,-105.035456,663148
33,604 Inca Street,80204,Denver,CO,39.725988,-104.997222,403865
34,24 Perry Street,80219,Denver,CO,39.717076,-105.039345,489785
35,1116 Emerson Street,80218,Denver,CO,39.73412,-104.976095,896526
36,2421 West Dunkeld Place,80211,Denver,CO,39.759488,-105.01647,483587
37,1324 Saint Paul Street,80206,Denver,CO,39.73733,-104.950289,874411
38,2785 North Speer Boulevard,80211,Denver,CO,39.756564,-105.018027,
39,550 East 3rd Avenue,80203,Denver,CO,39.720661,-104.980585,
40,3303 East 10th Avenue,80206,Denver,CO,39.732265,-104.94807,744498
41,4101 West Florida Avenue,80247,Denver,CO,39.690716,-104.883516,
42,2800 Welton Street,80205,Denver,CO,39.755618,-104.976415,
43,4675 Perry Street,80212,Denver,CO,39.781663,-105.039564,473901
44,4137 Raritan Street,80211,Denver,CO,39.773672,-105.009126,563296
45,717 Inca Street,80204,Denver,CO,39.727727,-104.997849,430021
46,980 East 22nd Avenue,80205,Denver,CO,39.749255,-104.974735,
47,3352 West 30th Avenue,80211,Denver,CO,39.760071,-105.031262,1256138
48,1019 East Cedar Avenue,80209,Denver,CO,39.713115,-104.975248,439534
49,3696 Lafayette Street,80205,Denver,CO,39.768029,-104.970503,404884
50,1424 East 10th Avenue,80218,Denver,CO,39.731878,-104.970217,
51,1550 East 37th Avenue,80205,Denver,CO,39.768012,-104.968746,399889
52,1815 South Marion Street,80210,Denver,CO,39.68366,-104.972529,
53,3930 West 14th Avenue,80204,Denver,CO,39.738276,-105.038886,531550
54,1137 Columbine Street,80206,Denver,CO,39.73449,-104.957766,285584
55,2356 South Marion Street,80210,Denver,CO,39.673798,-104.971954,594420
56,832 28th Street,,,,,,
57,1350 East 33rd Avenue,,,,,,
58,3722 Zenobia Street,80212,Denver,CO,39.767947,-105.051767,877482
59,200 Grant Street,80203,Denver,CO,39.745567,-104.983956,530249
60,1435 Vrain Street,80204,Denver,CO,39.739212,-105.046689,418014
61,4500 West 14th Avenue,,,,,,
62,2425 West 35th Avenue,80211,Denver,CO,39.765887,-105.016479,473477
63,1221 Gaylord Street,80206,Denver,CO,39.73554,-104.961369,754105
64,6760 Batavia Place,,,,,,
65,3420 Marion Street,80205,Denver,CO,39.764959,-104.971761,
66,1417 Lafayette Street,80218,Denver,CO,39.738827,-104.970822,837117
67,1115 Madison Street,80206,Denver,CO,39.734018,-104.946491,733765
68,3126 West 41st Avenue,80211,Denver,CO,39.772719,-105.028281,644292
69,2731 South Race Street,80210,Denver,CO,39.666942,-104.964601,746452
70,4666 Osceola Street,80212,Denver,CO,39.781293,-105.03785,410294
71,3934 Federal Boulevard,80211,Denver,CO,39.771862,-105.024869,
72,1910 West 38th Avenue,80211,Denver,CO,39.769155,-105.010433,562414
73,800 15th Street,,,,,,
74,3422 Josephine Street,80205,Denver,CO,39.764945,-104.958221,436123
75,2044 South Pearl Street,,,,,,
76,3019 Williams Street,80205,Denver,CO,39.759959,-104.966304,343128
77,1473 Jersey Street,,,,,,
78,285 Magnolia Street,,,,,,
79,62 West Ellsworth Avenue,80223,Denver,CO,39.716329,-104.989066,573191
80,2785 South High Street,80210,Denver,CO,39.666274,-104.965616,750838
81,3317 West 17th Avenue,80204,Denver,CO,39.744082,-105.030487,619503
82,411 Williams Street,80218,Denver,CO,39.722308,-104.966269,1202263
83,50 Pennsylvania Street,80203,Denver,CO,39.717538,-104.981118,873469
84,3582 Clayton Street,80210,Denver,CO,39.669686,-104.954727,1207398
85,1607 Gilpin Street,80218,Denver,CO,39.741829,-104.967554,
86,724 East 23rd Avenue,80205,Denver,CO,39.750531,-104.977301,491246
87,3344 Meade Street,80211,Denver,CO,39.764811,-105.035466,656874
88,3432 Adams Street,,,,,,
89,570 South Pennsylvania Street,80209,Denver,CO,39.706208,-104.981278,581957
90,1095 Federal Boulevard,,,,,,
91,4595 Perry Street,80212,Denver,CO,39.780046,-105.039564,648214
92,4317 Umatilla Street,80211,Denver,CO,39.77577,-105.012678,664057
93,3842 Osceola Street,,,,,,
94,1660 Steele Street,80206,Denver,CO,39.743118,-104.949659,
95,687 South Shoshone Street,80223,Denver,CO,39.704266,-105.010091,399253
96,2257 West 33rd Avenue,,,,,,
97,828 25th Street,80205,Denver,CO,39.754441,-104.983015,549521
98,824 East 20th Avenue,,,,,,
99,4657 East Kentucky Circle,80246,Denver,CO,39.701152,-104.934843,400321
100,3544 Mariposa Street,80211,Denver,CO,39.766499,-105.00264,355703
101,8412 Fairmount Drive,,,,,,
102,1025 Adams Street,80206,Denver,CO,39.732613,-104.948697,576716
103,1200 South Emerson Street,80210,Denver,CO,39.69459,-104.976601,543058
104,3549 Lipan Street,80211,Denver,CO,39.766581,-105.002092,1088964
105,2001 West Gill Place,80223,Denver,CO,39.705011,-105.011204,453760
106,975 Washington Street,80203,Denver,CO,39.731814,-104.978973,294617
107,1580 South Quebec Street,,,,,,
108,3975 Shoshone Street,80211,Denver,CO,39.771549,-105.00995,593649
109,3763 High Street,80205,Denver,CO,39.76929,-104.965068,422440
110,2152 East Vassar Avenue,,,,,,
111,1238 Madison Street,80206,Denver,CO,39.735983,-104.945851,682389
112,861 East Iliff Avenue,,,,,,
113,4785 Elm Court,,,,,,
114,1715 East 29th Avenue,80205,Denver,CO,39.758418,-104.966737,797834
115,1920 High Street,,,,,,
116,4058 Lipan Street,80211,Denver,CO,39.772802,-105.001433,
117,333 Marion Street,80218,Denver,CO,39.720757,-104.972053,1646636
118,3058 Newton Street,80211,Denver,CO,39.761437,-105.036651,795699
119,456 Bannock Street,,,,,,
120,2930 West 39th Avenue,80211,Denver,CO,39.77088,-105.023616,632990
121,2614 East 13th Avenue,80206,Denver,CO,39.736606,-104.955792,712812
122,2929 South Gilpin Street,,,,,,
123,1050 Pennsylvania Street,80203,Denver,CO,39.733011,-104.980689,1251794
124,649 South Pennsylvania Street,80209,Denver,CO,39.704739,-104.981906,679416
125,2544 West 43rd Avenue,80211,Denver,CO,39.775252,-105.018695,773142
126,3236 Arapahoe Street,80205,Denver,CO,39.763187,-104.975388,548028
127,8379 East 29th Avenue,80238,Denver,CO,39.7577,-104.891052,440606
128,1991 West Kentucky Avenue,80223,Denver,CO,39.699319,-105.011709,394565
129,2521 West 37th Avenue,80211,Denver,CO,39.768294,-105.017937,723950
130,2736 South Ingalls Way,80227,Denver,CO,39.66605,-105.06271,439874
131,2613 South Milwaukee Street,80210,Denver,CO,39.668974,-104.952672,1826883
132,4120 Hooker Street,80211,Denver,CO,39.77342,-105.028478,564177
133,333 Lincoln Street,,,,,,
134,3940 Humboldt Street,80205,Denver,CO,39.769798,-104.968868,441235
135,56 East Florida Avenue,80210,Denver,CO,39.691089,-104.949711,956941
136,4059 Shoshone Street,80211,Denver,CO,39.77276,-105.009929,614856
137,720 25th Street,80205,Denver,CO,39.75389,-104.982021,
138,1809 South Milwaukee Street,,,,,,
139,351 Santa Fe Drive,,,,,,
140,1017 East 9th Avenue,80218,Denver,CO,39.730599,-104.97441,
141,2432 West 37th Avenue,80211,Denver,CO,39.7678,-105.016714,467341
142,3231 East 30th Avenue,,,,,,
143,3949 Tejon Street,80211,Denver,CO,39.771421,-105.011529,1022261
144,2716 Marion Street,80205,Denver,CO,39.768532,-104.971737,275933
145,4400 Vrain Street,80212,Denver,CO,39.776673,-105.045969,870237
146,135 Fox Street,80223,Denver,CO,39.719085,-104.995523,466216
147,3938 Tejon Street,80211,Denver,CO,39.771423,-105.01085,789906
148,91 Bannock Street,80223,Denver,CO,39.718094,-104.991227,856170
149,3030 Downing Street,80205,Denver,CO,39.759972,-104.973035,889746
150,2394 Ivy Street,80207,Denver,CO,39.76534,-104.919659,428958
151,3344 West 33rd Avenue,80211,Denver,CO,39.763642,-105.031085,605306
152,2439 Williams Street,80205,Denver,CO,39.752704,-104.966275,694657
153,2552 High Street,80205,Denver,CO,39.754221,-104.964363,857658
154,2501 High Street,80210,Denver,CO,39.671101,-104.965581,
155,4599 East 23rd Avenue,,,,,,
156,1433 Adams Street,,,,,,
157,20951 East 52nd Avenue,,,,,,
158,1225 East 9th Avenue,,,,,,
159,2349 Champa Street,80205,Denver,CO,39.753903,-104.984878,738089
160,3655 East 13th Avenue,,,,,,
161,661 Logan Street,,,,,,
162,3839 West 46th Avenue,80211,Denver,CO,39.7805,-105.037871,995623
163,5226 East 23rd Avenue,80207,Denver,CO,39.750927,-104.926587,344740
164,3020 Josephine Street,80205,Denver,CO,39.759916,-104.95823,465121
165,138 West 1st Avenue,80223,Denver,CO,39.718117,-104.990311,611378
166,1565 Race Street,80206,Denver,CO,39.741165,-104.963812,1460618
167,832 26th Street,80205,Denver,CO,39.755492,-104.98166,425063
168,3845 Winona Court,80212,Denver,CO,39.770237,-105.04774,369306
169,1660 Gilpin Street,,,,,,
170,530 East 20th Avenue,,,,,,
171,604 Inca Street,80204,Denver,CO,39.725988,-104.997222,403865
172,1113 25th Street,,,,,,
173,2258 Monaco Parkway,80207,Denver,CO,39.750718,-104.913148,755776
174,6246 West Flora Place,,,,,,
175,280 Delaware Street,80223,Denver,CO,39.720799,-104.992574,605542
176,690 Pennsylvania Street,80209,Denver,CO,39.704069,-104.981339,434612
177,2905 East 36th Avenue,,,,,,
178,2745 Irving Street,80211,Denver,CO,39.757401,-105.030228,550051
179,1554 Gaylord Street,80206,Denver,CO,39.741027,-104.960654,1091384
180,5300 West Warren Avenue,,,,,,
181,3536 Navajo Street,80211,Denver,CO,39.766348,-105.00386,798609
182,3273 Lowell Boulevard,80211,Denver,CO,39.763492,-105.034911,590036
183,1855 West 33rd Avenue,80211,Denver,CO,39.763482,-105.009183,1386893
184,1156 Logan Street,80203,Denver,CO,39.734753,-104.982043,306431
185,1426 Fillmore Street,80206,Denver,CO,39.738893,-104.952669,649381
186,2460 West Argyle Place,80211,Denver,CO,39.761198,-105.017257,395284
187,1237 Garfield Street,80206,Denver,CO,39.735957,-104.944289,437900
188,900 Hudson Street,80220,Denver,CO,39.731213,-104.923046,555065
189,8184 Martin Luther King Jr. Boulevard,,,,,,
190,8701 East Kent Place,80237,Denver,CO,39.648566,-104.886974,605320
191,3669 Adams Street,,,,,,
192,3516 Gaylord Street,80205,Denver,CO,39.766095,-104.960632,609701
193,2954 Fillmore Street,,,,,,
194,1723 East 16th Avenue,80218,Denver,CO,39.741866,-104.966549,744072
195,947 Cherokee Street,,,,,,
196,4666 Osceola Street,80212,Denver,CO,39.781293,-105.03785,410294
197,700 West 9th Avenue,80204,Denver,CO,39.730257,-104.996736,1197688
198,125 South Sherman Street,80209,Denver,CO,39.714203,-104.985355,1116472
199,2105 South Adams Street,80210,Denver,CO,39.678072,-104.949792,794474
200,1225 Clayton Street,80210,Denver,CO,39.694282,-104.954996,717497
201,2332 Emerson Street,80205,Denver,CO,39.751409,-104.975419,1062413
202,2157 South High Street,80210,Denver,CO,39.677307,-104.96556,527836
203,1424 East 12th Avenue,80218,Denver,CO,39.735015,-104.969973,341681
204,1064 Lipan Street,80204,Denver,CO,39.73333,-105.001263,396058
205,815 East 4th Avenue,80218,Denver,CO,39.722692,-104.977076,704778
206,1801 East 24th Avenue,80205,Denver,CO,39.752153,-104.96574,757674
207,165 South Corona Street,80209,Denver,CO,39.713469,-104.974884,1379783
208,2137 Meade Street,80211,Denver,CO,39.74942,-105.036098,662205
209,4781 East 33rd Avenue,,,,,,
210,2909 South Winona Court,80236,Denver,CO,39.662175,-105.048472,397254
211,1353 Wolff Street,,,,,,
212,854 South Holly Street,,,,,,
213,5411 East Kentucky Avenue,,,,,,
214,1301 West 35th Avenue,,,,,,
215,999 Pearl Street,80203,Denver,CO,39.731805,-104.980139,283571
216,1719 Pearl Street,80210,Denver,CO,39.685352,-104.98077,633086
217,1812 South Logan Street,80210,Denver,CO,39.683689,-104.98248,504081
218,3318 Gaylord Street,80205,Denver,CO,39.763636,-104.960632,602583
219,3105 California Street,80205,Denver,CO,39.759601,-104.974001,454611
220,3778 West 48th Avenue,,,,,,
221,2650 West Bates Avenue,,,,,,
222,3735 Osage Street,80211,Denver,CO,39.768636,-105.00559,730756
223,1208 Logan Street,80210,Denver,CO,39.694528,-104.982403,674523
224,5301 East Custer Place,,,,,,
225,1151 Clarkson Street,80218,Denver,CO,39.734645,-104.977908,510438
226,3863 Newton Street,80211,Denver,CO,39.770598,-105.037305,614867
227,3114 Josephine Street,80205,Denver,CO,39.7611,-104.958221,539547
228,3015 Lowell Boulevard,80211,Denver,CO,39.760545,-105.034921,1597133
229,33 East Bayaud Avenue,,,,,,
230,2445 Lawrence Street,80205,Denver,CO,39.75678,-104.986371,341669
231,2235 South Harrison Street,80210,Denver,CO,39.675932,-104.942636,745743
232,3223 Grove Street,80211,Denver,CO,39.762793,-105.028766,633141
233,86 Clermont Street,,,,,,
234,3648 Garfield Street,80205,Denver,CO,39.76779,-104.943677,380076
235,3733 Lipan Street,80211,Denver,CO,39.768717,-105.002066,925431
236,757 East 20th Avenue,80205,Denver,CO,39.748078,-104.977529,
237,761 Lafayette Street,80218,Denver,CO,39.728366,-104.970927,675901
238,50 West 1st Avenue,80223,Denver,CO,39.718108,-104.988898,384498
239,41 South Ogden Street,80209,Denver,CO,39.715683,-104.97605,
240,4945 Perry Street,80212,Denver,CO,39.786452,-105.03955,541976
241,819 South Corona Street,80209,Denver,CO,39.701588,-104.974894,1287618
242,2777 Mile High Stadium Circle,,,,,,
243,4569 Bryant Street,80211,Denver,CO,39.779451,-105.019668,970078
244,1801 West Stoll Place,80221,Denver,CO,39.787415,-105.007655,365466
245,39 Emerson Street,80218,Denver,CO,39.717233,-104.97721,
246,4627 Tennyson Street,,,,,,
247,3011 Race Street,80205,Denver,CO,39.759786,-104.963818,521285
248,2578 South Lincoln Street,80210,Denver,CO,39.670171,-104.986128,509960
249,332 South Leyden Street,80224,Denver,CO,39.71041,-104.914875,453820
250,190 Rampart Way,,,,,,
251,912 Lafayette Street,80218,Denver,CO,39.730708,-104.970307,863659
252,6662 East 17th Avenue,,,,,,
253,3222 Raleigh Street,80212,Denver,CO,39.762559,-105.041345,544694
254,1219 East 10th Avenue,80218,Denver,CO,39.732181,-104.972641,798899
255,2061 South Adams Street,80210,Denver,CO,39.679052,-104.949788,1091723
256,224 South Clarkson Street,80209,Denver,CO,39.712346,-104.977744,864990
257,1647 Clarkson Street,80210,Denver,CO,39.686626,-104.978419,1002067
258,55 South Wolff Street,80219,Denver,CO,39.715513,-105.048487,334295
259,5764 East 14th Avenue,,,,,,
260,2543 Emerson Street,80205,Denver,CO,39.754064,-104.976084,544510
261,276 Locust Street,,,,,,
262,1003 Harrison Street,80206,Denver,CO,39.732216,-104.942121,525350
263,128 Sherman Street,80203,Denver,CO,39.718931,-104.984655,871370
264,6215 East 25th Avenue,,,,,,
265,78 Jackson Street,80206,Denver,CO,39.717464,-104.94219,915329
266,2626 Lowell Boulevard,80211,Denver,CO,39.755442,-105.034285,1042641
267,2038 Gaylord Street,80205,Denver,CO,39.747643,-104.960667,938867
268,2115 West 29th Avenue,80211,Denver,CO,39.758652,-105.012227,708297
269,4895 Vallejo Street,80221,Denver,CO,39.785459,-105.013836,521435
270,1772 Emerson Street,,,,,,
271,2600 18th Street,80211,Denver,CO,39.761122,-105.008314,667041
272,1126 Detroit Street,80206,Denver,CO,39.734114,-104.953724,833779
273,3611 York Street,80205,Denver,CO,39.767185,-104.960085,512024
274,2630 West 38th Avenue,80211,Denver,CO,39.768858,-105.019613,
275,1331 17th Street,,,,,,
276,5142 Decatur Street,80221,Denver,CO,39.790077,-105.021306,443542
277,1161 Gaylord Street,80206,Denver,CO,39.734585,-104.961375,
278,2536 West 34th Avenue,80211,Denver,CO,39.764091,-105.018412,948882
279,2653 South Krameria Street,80222,Denver,CO,39.668969,-104.916842,490202
280,1301 West 38th Avenue,,,,,,
281,2336 West 38th Avenue,80211,Denver,CO,39.769114,-105.015215,611858
282,3768 Williams Street,80205,Denver,CO,39.769331,-104.965567,
283,2541 Wolff Street,80212,Denver,CO,39.754666,-105.049063,956034
284,3343 Larimer Street,,,,,,
285,4552 Xavier Street,80212,Denver,CO,39.779381,-105.049592,892849
286,2208 Marion Street,80205,Denver,CO,39.74976,-104.971762,718639
287,2435 West Dunkeld Place,80211,Denver,CO,39.759686,-105.016903,460252
288,2657 Perry Street,,,,,,
289,855 Pennsylvania Street,80203,Denver,CO,39.729655,-104.981369,300297
290,919 East 10th Avenue,80218,Denver,CO,39.732193,-104.975992,629990
291,582 East Arizona Avenue,,,,,,
292,2360 South Williams Street,80210,Denver,CO,39.673682,-104.966075,474945
293,2547 South Grant Street,,,,,,
294,757 Gilpin Street,80218,Denver,CO,39.728357,-104.967445,856128
295,1337 18th Street,,,,,,
296,1005 Acoma Street,80204,Denver,CO,39.730099,-104.988791,
297,930 Pennsylvania Street,80209,Denver,CO,39.699709,-104.981221,826169
298,5537 East 19th Avenue,,,,,,
299,20275 East 47th Avenue,,,,,,
300,1158 Marion Street,80218,Denver,CO,39.734838,-104.971494,
301,134 South Broadway,80209,Denver,CO,39.697651,-104.986744,
302,2418 West 38th Avenue,80211,Denver,CO,39.769007,-105.016482,401941
303,709 East 12th Avenue,80203,Denver,CO,39.735337,-104.97839,
304,180 Sheridan Boulevard,80260,Denver,CO,39.871696,-105.014394,49230
305,2765 South Ingalls Way,80227,Denver,CO,39.665379,-105.062094,508190
306,4154 Umatilla Street,80211,Denver,CO,39.773896,-105.012047,709260
307,3150 West 22nd Avenue,80211,Denver,CO,39.749713,-105.028142,882112
308,3260 Quitman Street,80212,Denver,CO,39.763371,-105.040178,856838
309,2842 West 25th Avenue,80211,Denver,CO,39.753381,-105.023181,352610
310,1045 West 8th Avenue,80204,Denver,CO,39.729114,-105.001221,
311,1032 West 8th Avenue,80204,Denver,CO,39.728667,-105.001183,401173
312,1724 West 33rd Avenue,80211,Denver,CO,39.763037,-105.007054,512336
313,401 South Pearl Street,80209,Denver,CO,39.709171,-104.980587,591346
314,2450 Vine Street,80205,Denver,CO,39.75295,-104.961883,751334
315,3737 West 24th Avenue,80211,Denver,CO,39.752264,-105.036641,528486
316,1150 Garfield Street,80210,Denver,CO,39.695727,-104.94385,1513255
317,151 South Sherman Street,80209,Denver,CO,39.713583,-104.985404,424651
318,2431 Humboldt Street,,,,,,
319,3113 Franklin Street,80205,Denver,CO,39.7611,-104.968773,573338
320,3395 Dahlia Street,,,,,,
321,2793 Pontiac Street,,,,,,
322,664 Washington Street,80203,Denver,CO,39.726852,-104.978408,1749184
323,4104 Quivas Street,80211,Denver,CO,39.773134,-105.00741,880198
324,3801 West 20th Avenue,80211,Denver,CO,39.747729,-105.03737,1255258
325,628 Logan Street,80203,Denver,CO,39.726226,-104.982015,522340
326,1175 Santa Fe Drive,,,,,,
327,20699 East 55th Avenue,80249,Denver,CO,39.79433,-104.746355,419167
328,2038 Gaylord Street,80205,Denver,CO,39.747643,-104.960667,938867
329,2031 Gaylord Street,80205,Denver,CO,39.747516,-104.961332,756344
330,1080 Sherman Street,80203,Denver,CO,39.73347,-104.9842,
331,2527 Gaylord Street,80205,Denver,CO,39.753784,-104.961331,593114
332,1144 Broadway,,,,,,
333,252 Inca Street,80223,Denver,CO,39.720344,-104.997222,638119
334,2446 Irving Street,80211,Denver,CO,39.753219,-105.029502,695626
335,3415 Lawrence Street,80205,Denver,CO,39.765773,-104.974743,517706
336,3700 Utica Street,80212,Denver,CO,39.767568,-105.044901,671983
337,3953 Kalamath Street,80211,Denver,CO,39.771412,-105.000916,544979
338,1701 31st Street,,,,,,
339,3318 Pecos Street,,,,,,
340,3630 Osage Street,80211,Denver,CO,39.76734,-105.004958,1741502
341,7925 East 24th Avenue,,,,,,
342,2284 South Lincoln Street,,,,,,
343,3262 West 30th Avenue,80211,Denver,CO,39.760054,-105.029718,778202
344,3227 South Flamingo Way,80222,Denver,CO,39.658356,-104.926656,397633
345,3536 Sheridan Boulevard,,,,,,
346,818 Clarkson Street,,,,,,
347,803 West 6th Avenue,,,,,,
348,3943 West 23rd Avenue,80212,Denver,CO,39.751481,-105.039023,399573
349,2887 Glencoe Street,,,,,,
350,4025 Jason Street,80211,Denver,CO,39.772339,-104.999737,327903
351,1930 West 39th Avenue,80211,Denver,CO,39.770294,-105.010457,658306
352,2165 Curtis Street,,,,,,
353,2830 Glencoe Street,80207,Denver,CO,39.757136,-104.925438,557503
354,4542 West Hayward Place,80212,Denver,CO,39.759154,-105.046057,592261
355,37 West Maple Avenue,80223,Denver,CO,39.714165,-104.988561,607345
356,121 Osceola Street,80219,Denver,CO,39.7186,-105.038844,322944
357,785 Clayton Street,80206,Denver,CO,39.728785,-104.955875,2122029
358,2921 Central Park Boulevard,,,,,,
359,3187 North Speer Boulevard,,,,,,
360,1201 Kalamath Street,80204,Denver,CO,39.735502,-105.000561,
361,2124 High Street,80205,Denver,CO,39.748643,-104.964371,778618
362,3265 Federal Boulevard,80211,Denver,CO,39.764505,-105.025622,796266
363,2063 Market Street,,,,,,
364,1517 East 31st Avenue,80205,Denver,CO,39.760992,-104.969113,622824
365,3701 Zenobia Street,80212,Denver,CO,39.76765,-105.052396,724056
366,2932 Dexter Street,80207,Denver,CO,39.757202,-104.932489,642595
367,1423 Monroe Street,,,,,,
368,4801 West 32nd Avenue,80212,Denver,CO,39.762336,-105.048937,842351
369,1550 Downing Street,80218,Denver,CO,39.741053,-104.97303,1326414
370,3200 South Oneida Way,80224,Denver,CO,39.657443,-104.906954,378772
371,2536 West 34th Avenue,80211,Denver,CO,39.764091,-105.018412,948882
372,2751 Zenobia Street,80212,Denver,CO,39.757006,-105.052395,730686
373,2500 South Monroe Street,80210,Denver,CO,39.66994,-104.945657,
374,2119 East Arizona Avenue,,,,,,
375,516 West 7th Avenue,80204,Denver,CO,39.727158,-104.994433,298789
376,1327 Quitman Street,80204,Denver,CO,39.737196,-105.040811,412777
377,5273 Andes Street,,,,,,
378,4899 East Kentucky Avenue,,,,,,
379,734 Inca Street,80204,Denver,CO,39.728066,-104.997249,926722
380,3549 Stuart Street,80212,Denver,CO,39.766722,-105.043146,804701
381,1753 Cherry Street,80220,Denver,CO,39.744731,-104.93411,782067
382,2319 Glenarm Place,80205,Denver,CO,39.750857,-104.981828,386499
383,5728 East 16th Avenue,,,,,,
384,2398 South Platte River Drive,,,,,,
385,2522 Decatur Street,80211,Denver,CO,39.754084,-105.021831,
386,20 South Logan Street,80209,Denver,CO,39.71607,-104.982304,
387,4408 Decatur Street,80211,Denver,CO,39.776879,-105.021352,548234
388,711 South Tejon Street,80223,Denver,CO,39.703592,-105.011319,371090
389,4522 Elm Court,80211,Denver,CO,39.77907,-105.022501,662776
390,3363 East 16th Avenue,,,,,,
391,4250 West 3rd Avenue,,,,,,
392,3004 Arapahoe Street,80205,Denver,CO,39.76083,-104.978414,905005
393,2573 South Acoma Street,,,,,,
394,1418 Adams Street,80206,Denver,CO,39.738947,-104.948057,
395,2741 South Garfield Street,80210,Denver,CO,39.666543,-104.944008,819463
396,1425 South Glencoe Street,,,,,,
397,2014 West 43rd Avenue,80211,Denver,CO,39.775158,-105.011616,389304
398,1715 East 33rd Avenue,80205,Denver,CO,39.763457,-104.966649,382402
399,2795 North Speer Boulevard,80211,Denver,CO,39.757381,-105.01921,
400,3525 East 11th Avenue,80206,Denver,CO,39.73383,-104.945469,
401,2245 Glencoe Street,80207,Denver,CO,39.750125,-104.926121,861574
402,4610 Quitman Street,80212,Denver,CO,39.780516,-105.040096,563296
403,2829 West Exposition Avenue,,,,,,
404,924 East 24th Avenue,80205,Denver,CO,39.751762,-104.975039,560324
405,1515 Madison Street,,,,,,
406,3724 Tejon Street,80211,Denver,CO,39.768572,-105.01086,596418
407,2645 West 34th Avenue,80211,Denver,CO,39.76467,-105.020012,1060070
408,3266 Cook Street,,,,,,
409,6320 East Floyd Drive,80222,Denver,CO,39.65655,-104.917907,541125
410,2445 South Acoma Street,80223,Denver,CO,39.672239,-104.989127,373014
411,3714 Kalamath Street,80211,DENVER,CO,39.768564,-105.000254,
412,1390 Logan Street,,,,,,
413,3305 Madison Street,,,,,,
414,2200 Glencoe Street,80220,Denver,CO,39.734854,-104.925396,551205
415,3142 Champa Street,80205,Denver,CO,39.76096,-104.974782,553978
416,259 Delaware Street,80223,Denver,CO,39.720462,-104.993165,305476
417,4260 West 25th Avenue,80212,Denver,CO,39.753709,-105.042765,1401158
418,1127 20th Street,80202,Denver,CO,39.75263,-104.991972,
419,1127 20th Street,80202,Denver,CO,39.75263,-104.991972,
420,2033 Lawrence Street,80205,Denver,CO,39.752942,-104.991349,
421,2009 Larimer Street,80202,Denver,CO,39.750981,-104.995393,414668
422,189 South Broadway,,,,,,
423,2711 Zenobia Street,80212,Denver,CO,39.756277,-105.052389,622085
424,421 Olive Street,,,,,,
425,2217 Champa Street,80205,Denver,CO,39.752619,-104.98652,
426,3647 Fillmore Street,80205,Denver,CO,39.767839,-104.953986,428197
427,3414 Marion Street,80205,Denver,CO,39.764819,-104.971761,522127
428,4345 West 38th Avenue,,,,,,
429,3310 Adams Street,80205,Denver,CO,39.76344,-104.9487,336164
430,1460 Utica Street,80204,Denver,CO,39.739616,-105.044837,675836
431,1599 Williams Street,,,,,,
432,1210 East 16th Avenue,,,,,,
433,4473 Adams Street,80216,Denver,CO,39.778759,-104.949027,413079
434,3825 West 32nd Avenue,80211,Denver,CO,39.762379,-105.037833,1673199
435,7404 East Princeton Avenue,80237,Denver,CO,39.639895,-104.902318,260081
436,3530 Bryant Street,80211,Denver,CO,39.766283,-105.01864,642600
437,3374 South Forest Street,80222,Denver,CO,39.65546,-104.926885,382129
438,3084 South Dayton Court,,,,,,
439,3231 Champa Street,80205,Denver,CO,39.762145,-104.974212,651718
440,127 South Pennsylvania Street,80209,Denver,CO,39.714208,-104.98185,578855
441,2280 East 16th Avenue,,,,,,
442,3365 West 31st Avenue,80211,Denver,CO,39.761457,-105.031534,665654
443,954 South University Boulevard,,,,,,
444,1280 25th Street,,,,,,
445,1883 Vine Street,80206,Denver,CO,39.746254,-104.962627,537255
446,2136 Vine Street,80205,Denver,CO,39.748928,-104.961893,1012741
447,1279 Marion Street,80218,Denver,CO,39.736694,-104.97199,
448,1424 South Washington Street,,,,,,
449,1202 South Forest Street,,,,,,
450,1456 Cherry Street,,,,,,
451,12 Clermont Street,,,,,,
452,2701 Saint Paul Street,80205,Denver,CO,39.75588,-104.951529,526242
453,3062 Grape Street,,,,,,
454,3267 Newton Street,80211,Denver,CO,39.763423,-105.03728,1185004
455,6601 East 38th Avenue,,,,,,
456,2275 East 35th Avenue,80205,Denver,CO,39.765919,-104.960084,609583
457,1122 Corona Street,80218,Denver,CO,39.734134,-104.973709,765119
458,1170 Grape Street,80220,Denver,CO,39.734137,-104.92427,764539
459,1455 West 43rd Avenue,80211,Denver,CO,39.775737,-105.004935,610802
460,1003 22nd Street,,,,,,
461,3149 Wyandot Street,80211,Denver,CO,39.76175,-105.014803,1839916
462,2936 Gaylord Street,80205,Denver,CO,39.758951,-104.960632,409911
463,3515 Wyandot Street,80211,Denver,CO,39.765942,-105.014689,501345
464,954 South Pennsylvania Street,80209,Denver,CO,39.69934,-104.981219,680444
465,3444 Navajo Street,80211,Denver,CO,39.765295,-105.004013,931185
466,19 Bannock Street,80223,Denver,CO,39.717019,-104.991246,486822
467,7140 East 2nd Avenue Parkway,,,,,,
468,6185 East Iliff Avenue,,,,,,
469,2455 Glenarm Place,80205,Denver,CO,39.75219,-104.980083,1363539
470,1915 East 28th Avenue,80205,Denver,CO,39.75725,-104.96426,624247
471,907 East 22nd Avenue,80205,Denver,CO,39.74962,-104.975378,799943
472,7800 East 28th Avenue,80238,Denver,CO,39.75773,-104.896939,471377
473,719 31st Street,80205,Denver,CO,39.759712,-104.974392,424821
474,618 East Ohio Avenue,,,,,,
475,2832 Marion Street,80205,Denver,CO,39.757679,-104.97176,472140
476,1600 Vrain Street,80204,Denver,CO,39.742326,-105.045995,504894
477,830 Clarkson Street,80209,Denver,CO,39.701412,-104.977758,921352
478,1845 West Beekman Place,80221,Denver,CO,39.788801,-105.009195,353142
479,65 West Iliff Avenue,80231,Denver,CO,39.673171,-104.873644,157563
480,1750 West Burlington Place,80221,Denver,CO,39.789368,-105.007586,331071
481,788 Milwaukee Street,80206,Denver,CO,39.728932,-104.951419,1267985
482,7600 East 14th Avenue,,,,,,
483,115 Sherman Street,80203,Denver,CO,39.718624,-104.985327,668882
484,3500 Larimer Street,,,,,,
485,3316 Tennyson Street,80212,Denver,CO,39.764322,-105.043689,921065
486,3439 Wyandot Street,80211,Denver,CO,39.765194,-105.014685,539519
487,1311 East 12th Avenue,80218,Denver,CO,39.735373,-104.971508,819299
488,249 South Gilpin Street,80209,Denver,CO,39.711952,-104.967815,785787
489,3680 East 39th Avenue,,,,,,
490,504 24th Street,80205,Denver,CO,39.751272,-104.981286,616735
491,3503 Tejon Street,80211,Denver,CO,39.765984,-105.011346,1109969
492,644 South Vine Street,,,,,,
493,667 Downing Street,80209,Denver,CO,39.704571,-104.973717,1901337
494,1326 Corona Street,80218,Denver,CO,39.73764,-104.97404,
495,730 Franklin Street,80218,Denver,CO,39.727929,-104.967963,1427524
496,5813 East 6th Avenue Parkway,,,,,,
497,3550 Meade Street,80211,Denver,CO,39.766796,-105.035472,521203
498,2816 Humboldt Street,80205,Denver,CO,39.757499,-104.969289,494557
499,48 West Ellsworth Avenue,80223,Denver,CO,39.716326,-104.988727,739454
500,2827 West 23rd Avenue,80211,Denver,CO,39.751442,-105.022724,761669
501,2432 Stout Street,80205,Denver,CO,39.753613,-104.98249,592596
502,231 Delaware Street,80223,Denver,CO,39.719914,-104.993169,596308
503,5151 East Jewell Avenue,,,,,,
504,2050 Perry Street,80212,Denver,CO,39.748621,-105.039151,979002
505,1029 East Iliff Avenue,,,,,,
506,2625 West 25th Avenue,80211,Denver,CO,39.753809,-105.019766,
507,3201 West 44th Avenue,80211,Denver,CO,39.776962,-105.028539,793922
508,2725 West 21st Avenue,80211,Denver,CO,39.748951,-105.021211,611640
509,2215 York Street,80205,Denver,CO,39.749804,-104.960103,1111801
510,1640 East 18th Avenue,80218,Denver,CO,39.744573,-104.967551,1161869
511,2815 West 36th Avenue,80211,Denver,CO,39.766983,-105.022382,451959
512,2840 West 29th Avenue,,,,,,
513,870 Galapago Street,80204,Denver,CO,39.730231,-104.996088,581846
514,1984 East Exposition Avenue,,,,,,
515,1660 Logan Street,80210,Denver,CO,39.686466,-104.982453,515809
516,4480 Hale Parkway,,,,,,
517,4570 West Moncrieff Place,80212,Denver,CO,39.762765,-105.046661,702263
518,1489 Steele Street,80206,Denver,CO,39.739976,-104.949638,
519,4329 East Iowa Avenue,,,,,,
520,4154 Umatilla Street,80211,Denver,CO,39.773896,-105.012047,709260
521,1344 Humboldt Street,80218,Denver,CO,39.737692,-104.969209,563197
522,2601 West 38th Avenue,80211,Denver,CO,39.769542,-105.019158,701117
523,2531 Ogden Street,,,,,,
524,2600 Sheridan Boulevard,,,,,,
525,2333 Emerson Street,80205,Denver,CO,39.751358,-104.976084,470545
526,3276 Tennyson Street,80212,Denver,CO,39.763498,-105.043691,675929
527,7198 East 23rd Avenue,,,,,,
528,622 South Pennsylvania Street,80209,Denver,CO,39.705242,-104.981262,707279
529,2061 Gaylord Street,80205,Denver,CO,39.748029,-104.961347,852108
530,2225 Vine Street,80205,Denver,CO,39.749947,-104.962578,714963
531,1376 Monroe Street,80206,Denver,CO,39.738178,-104.944754,484458
532,4064 East 16th Avenue,,,,,,
533,6 Lincoln Street,80209,Denver,CO,39.711432,-104.986633,285001
534,6170 East 25th Avenue,,,,,,
535,1836 Boulder Street,80211,Denver,CO,39.761574,-105.006912,
536,1400 Utica Street,80204,Denver,CO,39.738658,-105.044848,562082
537,2601 Zuni Street,80219,Denver,CO,39.755666,-105.01604,
538,345 Lincoln Street,80203,Denver,CO,39.721861,-104.986566,529462
539,2631 East 30th Avenue,,,,,,
540,2760 West 40th Avenue,80211,Denver,CO,39.771803,-105.02201,562396
541,2322 West 31st Avenue,80211,Denver,CO,39.760629,-105.015445,312858
542,4020 Jebel Street,,,,,,
543,1328 Franklin Street,80218,Denver,CO,39.737374,-104.968108,
544,367 East Speer Boulevard,80203,Denver,CO,39.72464,-104.983899,
545,1516 Emerson Street,80210,Denver,CO,39.688799,-104.976607,690089
546,2951 Wyandot Street,80211,Denver,CO,39.759438,-105.014731,500584
547,4906 East 26th Avenue,,,,,,
548,1777 Franklin Street,,,,,,
549,2837 Vallejo Street,80211,Denver,CO,39.757917,-105.013508,
550,2462 Glenarm Place,80205,Denver,CO,39.752039,-104.979557,449665
551,713 Leyden Street,,,,,,
552,3700 Sheridan Boulevard,80212,Denver,CO,39.767666,-105.052906,426339
553,2550 West River Drive,,,,,,
554,3415 Lawrence Street,80205,Denver,CO,39.765773,-104.974743,517706
555,4670 Osceola Street,80212,Denver,CO,39.781463,-105.03785,443494
556,5138 West 9th Avenue,80204,Denver,CO,39.731117,-105.052871,
557,2824 Humboldt Street,80205,Denver,CO,39.757571,-104.969299,489893
558,4559 West 32nd Avenue,80212,Denver,CO,39.762342,-105.046477,523116
559,3020 Gilpin Street,,,,,,
560,1157 Lafayette Street,80218,Denver,CO,39.734781,-104.970997,732253
561,2516 South Madison Street,80210,Denver,CO,39.67077,-104.946207,1861485
562,3823 High Street,80205,Denver,CO,39.770474,-104.965064,486919
563,3296 South Oneida Way,,,,,,
564,800 15th Street,,,,,,
565,913 15th Street,,,,,,
566,111 South Monroe Street,80209,Denver,CO,39.713697,-104.945224,
567,742 West 9th Avenue,80204,Denver,CO,39.730392,-104.997381,430416
568,2884 Milwaukee Street,80210,Denver,CO,39.665084,-104.952104,882453
569,2530 South Fillmore Street,80210,Denver,CO,39.670652,-104.953325,1439929
570,2230 West 30th Avenue,80211,Denver,CO,39.759471,-105.014096,413439
571,469 Steele Street,80206,Denver,CO,39.723811,-104.950142,2370886
572,1420 Stout Street,,,,,,
573,4250 Shoshone Street,,,,,,
574,641 Milwaukee Street,80206,Denver,CO,39.726357,-104.952379,1396983
575,1625 Downing Street,80210,Denver,CO,39.686974,-104.973767,510637
576,2815 Downing Street,80205,Denver,CO,39.757405,-104.973599,
577,3319 West 18th Avenue,80204,Denver,CO,39.745346,-105.030294,614911
578,2953 West 38th Avenue,,,,,,
579,2601 Zuni Street,80219,Denver,CO,39.755666,-105.01604,
580,409 Orange Court,80220,Denver,CO,39.724238,-104.907547,661605
581,728 West 9th Avenue,80204,Denver,CO,39.730297,-104.997194,369027
582,2005 Gaylord Street,80205,Denver,CO,39.747152,-104.961311,624967
583,2121 South Colorado Boulevard,,,,,,
584,1225 17th Street,,,,,,
585,2550 South Milwaukee Street,80210,Denver,CO,39.67023,-104.951878,2331546
586,4174 Sheridan Boulevard,80212,Denver,CO,39.774312,-105.052911,339981
587,2713 South Vrain Street,80236,Denver,CO,39.667326,-105.046118,387457
588,2710 Hazel Court,,,,,,
589,3130 Regis Boulevard,,,,,,
590,2831 Ivanhoe Street,,,,,,
591,2808 Lafayette Street,80205,Denver,CO,39.757271,-104.970525,826350
592,2938 Humboldt Street,80205,Denver,CO,39.759023,-104.969294,929209
593,836 South Clarkson Street,80209,Denver,CO,39.701207,-104.977758,589254
594,2943 Vine Street,80205,Denver,CO,39.75909,-104.962551,706552
595,3311 Tejon Street,80211,Denver,CO,39.763487,-105.011527,914769
596,1927 West 33rd Avenue,80211,Denver,CO,39.763479,-105.010282,677773
597,338 South Locust Street,,,,,,
598,1301 West 35th Avenue,,,,,,
599,1370 Sheridan Boulevard,80214,Denver,CO,39.737894,-105.052868,398994
600,562 South High Street,,,,,,
601,813 East 11th Avenue,,,,,,
602,1286 Zenobia Street,80204,Denver,CO,39.736522,-105.051759,1221462
603,4305 Mariposa Street,,,,,,
604,6339 East 36th Avenue,,,,,,
605,1972 South Pennsylvania Street,80210,Denver,CO,39.680762,-104.981349,584386
606,3244 Newport Street,,,,,,
607,1401 East 9th Avenue,80218,Denver,CO,39.730595,-104.970307,
608,1734 East Center Avenue,,,,,,
609,3276 Olive Street,80207,Denver,CO,39.763398,-104.906644,407485
610,4058 Lipan Street,80211,Denver,CO,39.772802,-105.001433,
611,1624 Irving Street,,,,,,
612,2711 Zenobia Street,80212,Denver,CO,39.756277,-105.052389,622085
613,19026 East 50th Avenue,,,,,,
614,4877 West 46th Avenue,,,,,,
615,1541 Marion Street,,,,,,
616,33 East Bayaud Avenue,,,,,,
617,2450 Vine Street,80205,Denver,CO,39.75295,-104.961883,751334
618,3336 West 34th Avenue,80211,Denver,CO,39.764534,-105.030974,680010
619,3690 Wolff Street,80212,Denver,CO,39.767391,-105.048533,718335
620,3568 Columbine Street,80210,Denver,CO,39.669857,-104.956145,1619424
621,2515 South Cherry Street,80222,Denver,CO,39.67037,-104.934685,486828
622,2322 West 31st Avenue,80211,Denver,CO,39.760629,-105.015445,312858
623,3472 West 33rd Avenue,80211,Denver,CO,39.763633,-105.034024,756931
624,611 Corona Street,80218,Denver,CO,39.725944,-104.974389,766214
625,3658 East 36th Avenue,,,,,,
626,3104 Meade Street,80211,Denver,CO,39.761416,-105.035466,508874
627,3141 York Street,80205,Denver,CO,39.761512,-104.960082,670243
628,7332 East Princeton Avenue,80237,Denver,CO,39.639901,-104.902328,286766
629,500 East 19th Avenue,,,,,,
630,282 Inca Street,80223,Denver,CO,39.720807,-104.997235,409898
631,2700 Bellaire Street,80207,Denver,CO,39.754937,-104.936924,941115
632,2626 Gaylord Street,80210,Denver,CO,39.668854,-104.961429,450802
633,3723 Pecos Street,80211,Denver,CO,39.768605,-105.006746,503489
634,555 17th Street,,,,,,
635,2617 Marion Street,80205,Denver,CO,39.754926,-104.972462,414148
636,1700 Julian Street,,,,,,
637,2536 South Milwaukee Street,80210,Denver,CO,39.670506,-104.951879,1236504
638,1266 Rosemary Street,,,,,,
639,2040 Clay Street,,,,,,
640,2928 West 35th Avenue,80211,Denver,CO,39.765371,-105.0243,596382
641,2361 South Fillmore Street,80210,Denver,CO,39.673654,-104.954081,2977240
642,2769 West Denver Place,80211,Denver,CO,39.770488,-105.022317,494409
643,2095 Emerson Street,80210,Denver,CO,39.678701,-104.977142,1021800
644,2120 West Virginia Avenue,80223,Denver,CO,39.707151,-105.012672,313949
645,1868 South Logan Street,80210,Denver,CO,39.682779,-104.982643,845097
646,3358 Clay Street,80211,Denver,CO,39.764317,-105.020292,373272
647,3349 Clay Street,80211,Denver,CO,39.764161,-105.020828,747208
648,3826 Gilpin Street,80205,Denver,CO,39.770559,-104.966797,627854
649,2522 Alton Street,80238,Denver,CO,39.752689,-104.881581,1006767
650,3609 Columbine Street,80123,Littleton,CO,39.620712,-105.035365,414941
651,43 West Irvington Place,80223,Denver,CO,39.717762,-104.988721,596139
652,1007 Marion Street,80218,Denver,CO,39.732271,-104.972105,977487
653,3212 High Street,,,,,,
654,5553 Yost Court,80239,Denver,CO,39.795861,-104.82817,299735
655,4717 East Kentucky Avenue,,,,,,
656,2652 Front View Crescent Drive,80211,Denver,CO,39.749521,-105.019806,490579
657,1160 Lincoln Street,80210,Denver,CO,39.695485,-104.985979,1042040
658,923 26th Street,80205,Denver,CO,39.7565,-104.982258,347397
659,1037 26th Street,80205,Denver,CO,39.757256,-104.983285,314465
660,5015 Perry Street,80212,Denver,CO,39.787726,-105.039571,
661,45 South Yates Street,80219,Denver,CO,39.715873,-105.050943,344757
662,2534 West Argyle Place,80211,Denver,CO,39.761239,-105.019014,341184
663,1177 South Dale Court,80219,Denver,CO,39.695011,-105.022172,429059
664,5244 East Mississippi Avenue,,,,,,
665,1209 Lipan Street,80204,Denver,CO,39.735561,-105.001899,395001
666,2525 Clay Street,80211,Denver,CO,39.754105,-105.020756,326011
667,5035 West Colfax Avenue,80204,Denver,CO,39.74062,-105.040151,
668,1152 Emerson Street,80210,Denver,CO,39.695616,-104.976599,501761
669,2417 West 29th Avenue,,,,,,
670,6938 East Mansfield Avenue,,,,,,
671,2200 East 22nd Avenue,80205,Denver,CO,39.749263,-104.962946,522467
672,84 Inca Street,80223,Denver,CO,39.718128,-104.997288,565155
673,1736 Race Street,80206,Denver,CO,39.743964,-104.963124,
674,1973 South Grant Street,80210,Denver,CO,39.680754,-104.984348,688176
675,5105 Lisbon Way,,,,,,
676,6158 East 33rd Avenue,,,,,,
677,1751 Williams Street,,,,,,
678,1421 Steele Street,80210,Denver,CO,39.690851,-104.950358,
679,3202 Vallejo Street,80211,Denver,CO,39.762172,-105.012598,985007
680,617 West 1st Avenue,80223,Denver,CO,39.718574,-104.995637,479544
681,450 13th Street,,,,,,
682,2533 Humboldt Street,80205,Denver,CO,39.753873,-104.969973,383249
683,4633 East Colfax Avenue,80220,Denver,CO,39.740312,-104.933018,
684,3117 Tejon Street,80211,Denver,CO,39.761205,-105.011352,404573
685,3428 Osage Street,80211,Denver,CO,39.765028,-105.004949,1083059
686,2289 Uinta Street,80238,Denver,CO,39.750522,-104.893069,715011
687,3353 East Iowa Avenue,,,,,,
688,3350 Kalamath Street,,,,,,
689,920 King Street,80204,Denver,CO,39.73156,-105.032978,355303
690,3101 Steele Street,80205,Denver,CO,39.760899,-104.950287,634418
691,18 Fox Street,80223,Denver,CO,39.716957,-104.99482,588438
692,4452 Newton Street,80211,Denver,CO,39.777637,-105.036629,512151
693,2540 South Birch Street,80222,Denver,CO,39.669652,-104.936523,456727
694,2409 South Lincoln Street,80210,Denver,CO,39.672803,-104.986679,601849
695,679 Elati Street,80204,Denver,CO,39.727141,-104.994268,442749
696,1139 Jersey Street,,,,,,
697,2877 Lawrence Street,,,,,,
698,1050 West Colfax Avenue,80204,Denver,CO,39.739673,-105.001079,
699,2838 Locust Street,,,,,,
700,2601 South High Street,80210,Denver,CO,39.669287,-104.965597,476264
701,1600 East 17th Avenue,80218,Denver,CO,39.74297,-104.968089,
702,1727 East 38th Avenue,80205,Denver,CO,39.770228,-104.966425,601400
703,4161 King Street,80211,Denver,CO,39.77425,-105.033714,685600
704,205 Logan Street,80203,Denver,CO,39.719507,-104.982901,642922
705,1456 Lowell Boulevard,,,,,,
706,2586 Albion Street,,,,,,
707,916 Xavier Street,80204,Denver,CO,39.731533,-105.049533,346983
708,2801 Downing Street,80205,Denver,CO,39.757243,-104.973692,
709,5565 Yuba Way,80239,Denver,CO,39.797355,-104.828315,337251
710,1300 East 21st Avenue,80205,Denver,CO,39.747881,-104.972059,4358892
711,3427 Clay Street,80211,Denver,CO,39.76499,-105.020836,459793
712,637 South Washington Street,80209,Denver,CO,39.704977,-104.979569,542439
713,1837 West 39th Avenue,80211,Denver,CO,39.770747,-105.008989,728943
714,1601 East 17th Avenue,80206,Denver,CO,39.743197,-104.952985,864950
715,1849 Grove Street,80204,Denver,CO,39.746106,-105.027169,1255072
716,1070 Marion Street,80218,Denver,CO,39.733239,-104.971544,
717,1145 Hudson Street,80220,Denver,CO,39.733726,-104.923759,563501
718,156 East Mississippi Avenue,,,,,,
719,2945 Downing Street,,,,,,
720,2135 Grove Street,80211,Denver,CO,39.749593,-105.027186,555870
721,4880 Leaf Court,80216,Denver,CO,39.785337,-104.986624,229021
722,1350 Logan Street,80210,Denver,CO,39.691951,-104.98243,533549
723,3101 Williams Street,80205,Denver,CO,39.760914,-104.966307,
724,3227 Newport Street,,,,,,
725,2716 Albion Street,,,,,,
726,4017 King Street,80211,Denver,CO,39.772267,-105.033383,582281
727,21 South Broadway,80209,Denver,CO,39.715897,-104.988427,
728,909 East 24th Avenue,,,,,,
729,1696 Oneida Street,80224,Denver,CO,39.685513,-104.908022,500070
730,4021 Navajo Street,80211,Denver,CO,39.772243,-105.004557,527407
731,617 East 6th Avenue,80203,Denver,CO,39.725815,-104.979453,441745
732,2633 West Argyle Place,80211,Denver,CO,39.761546,-105.01979,582690
733,1801 East 26th Avenue,80205,Denver,CO,39.754661,-104.965566,1449993
734,705 West 8th Avenue,80204,Denver,CO,39.729151,-104.996561,
735,3541 Lafayette Street,80205,Denver,CO,39.766558,-104.971229,749505
736,3629 Jason Street,80211,Denver,CO,39.767453,-104.999714,385457
737,1692 Monroe Street,,,,,,
738,1348 18th Street,,,,,,
739,4879 Newton Street,80221,Denver,CO,39.785269,-105.03726,496191
740,2929 Albion Street,,,,,,
741,2719 Ivy Street,,,,,,
742,1650 Washington Street,80210,Denver,CO,39.686559,-104.978974,779725
743,1951 South Milwaukee Street,80210,Denver,CO,39.680725,-104.952618,751820
744,2737 West 24th Avenue,80211,Denver,CO,39.752547,-105.021395,643241
745,3233 Newport Street,,,,,,
746,656 East Iowa Avenue,80210,Denver,CO,39.687341,-104.979688,743857
747,5296 East 38th Avenue,,,,,,
748,2136 Perry Street,80212,Denver,CO,39.749489,-105.038972,549146
749,329 Acoma Street,80223,Denver,CO,39.721558,-104.989626,956859
750,2001 East 24th Avenue,80205,Denver,CO,39.752126,-104.963085,1000826
751,980 Marion Street,80218,Denver,CO,39.731838,-104.971477,1193512
752,1122 West 10th Avenue,80204,Denver,CO,39.73188,-105.002345,553029
753,8100 Martin Luther King Jr Boulevard,,,,,,
754,454 Pennsylvania Street,80203,Denver,CO,39.723576,-104.980803,754754
755,754 East 7th Avenue,80203,Denver,CO,39.727083,-104.978017,1045005
756,1228 Lipan Street,80204,Denver,CO,39.735844,-105.001206,634228
757,2728 West 24th Avenue,80211,Denver,CO,39.752128,-105.021178,316525
758,3186 Vallejo Street,80211,Denver,CO,39.761579,-105.012584,674375
759,1541 Steele Street,80206,Denver,CO,39.740998,-104.950434,698633
760,191 South Logan Street,80209,Denver,CO,39.713092,-104.983051,506018
761,5809 East 33rd Avenue,,,,,,
762,811 East 17th Avenue,80203,Denver,CO,39.743007,-104.983102,
763,3376 West 37th Avenue,80211,Denver,CO,39.767144,-105.031702,543338
764,4042 Umatilla Street,80211,Denver,CO,39.772659,-105.012061,1008388
765,1580 Pennsylvania Street,80210,Denver,CO,39.687732,-104.981256,1220606
766,1570 South Umatilla Street,80223,Denver,CO,39.687748,-105.012478,306190
767,1583 Ogden Street,80210,Denver,CO,39.688042,-104.976078,586597
768,1140 Columbine Street,80206,Denver,CO,39.734561,-104.957127,264721
769,4159 Dunkirk Way,,,,,,
770,2840 Curtis Street,80205,Denver,CO,39.758836,-104.979257,859090
771,7154 East 12th Avenue,,,,,,
772,4870 Quivas Street,80221,Denver,CO,39.785031,-105.007954,324507
773,1836 Grove Street,80204,Denver,CO,39.745925,-105.026345,
774,7582 East 17th Avenue,,,,,,
775,1475 East 33rd Avenue,,,,,,
776,4960 Bryant Street,80221,Denver,CO,39.786742,-105.018969,426319
777,4277 West 43rd Avenue,,,,,,
778,4548 Clay Street,80211,Denver,CO,39.778748,-105.020184,478950
779,1200 South Grant Street,80210,Denver,CO,39.694639,-104.983629,509022
780,340 West Archer Place,80223,Denver,CO,39.715434,-104.993127,436528
781,3417 Lafayette Street,80205,Denver,CO,39.764851,-104.971224,327810
782,1719 Julian Street,,,,,,
783,4001 Wyandot Street,80211,Denver,CO,39.771893,-105.014998,643874
784,2712 East 30th Avenue,,,,,,
785,2323 Curtis Street,,,,,,
786,2201 Clay Street,,,,,,
787,1095 East Speer Boulevard North,,,,,,
788,2621 South Williams Street,80210,Denver,CO,39.669019,-104.966771,600655
789,380 South Pennsylvania Street,80209,Denver,CO,39.709681,-104.981214,659431
790,994 South Emerson Street,80209,Denver,CO,39.698554,-104.976588,856680
791,288 Monaco Parkway,,,,,,
792,3327 Gaylord Street,80205,Denver,CO,39.763814,-104.961326,708712
793,3701 Zenobia Street,80212,Denver,CO,39.76765,-105.052396,724056
794,1940 West 39th Avenue,80211,Denver,CO,39.770253,-105.010643,562640
795,3324 West 17th Avenue,80204,Denver,CO,39.74365,-105.030802,
796,1398 Irving Street,,,,,,
797,1409 Hudson Street,,,,,,
798,2821 West 34th Avenue,80211,Denver,CO,39.764659,-105.022654,654220
799,1860 Race Street,80206,Denver,CO,39.745873,-104.963123,1028472
800,9288 East Mansfield Avenue,80237,Denver,CO,39.645748,-104.880712,310117
801,509 Quitman Street,,,,,,
802,1377 South Shoshone Street,80223,Denver,CO,39.691527,-105.011036,368303
803,3939 West 25th Avenue,80212,Denver,CO,39.754159,-105.039107,695270
804,2048 Ogden Street,80205,Denver,CO,39.748508,-104.974248,653776
805,1442 Humboldt Street,80218,Denver,CO,39.73922,-104.969215,
806,1155 30th Street,,,,,,
807,2590 South Downing Street,80210,Denver,CO,39.669675,-104.973148,
808,425 Galapago Street,80204,Denver,CO,39.723135,-104.996692,627498
809,2131 Gaylord Street,,,,,,
810,2640 South Marion Street,80210,Denver,CO,39.668665,-104.971983,345001
811,2108 South Washington Street,,,,,,
812,2332 Clarkson Street,80205,Denver,CO,39.751359,-104.976611,545816
813,2 South Pearl Street,80209,Denver,CO,39.716359,-104.980088,610579
814,2929 South Elm Street,80222,Denver,CO,39.664791,-104.930043,372075
815,223 Bannock Street,80223,Denver,CO,39.71985,-104.9912,604297
816,52 Lincoln Street,80203,Denver,CO,39.717506,-104.985874,792996
817,3032 Gaylord Street,80205,Denver,CO,39.760154,-104.960631,512985
818,1982 South Franklin Street,80210,Denver,CO,39.680575,-104.968408,1401307
819,1532 East 31st Avenue,80205,Denver,CO,39.760524,-104.968749,1113750
820,2847 Olive Street,,,,,,
821,120 South Grant Street,80209,Denver,CO,39.714275,-104.983538,529184
822,3414 West 3rd Avenue,80219,Denver,CO,39.721095,-105.031717,362799
823,931 Santa Fe Drive,,,,,,
824,3914 Wyandot Street,80211,Denver,CO,39.770874,-105.014374,551158
825,21498 East 53rd Avenue,,,,,,
826,435 Fillmore Street,80206,Denver,CO,39.723293,-104.953766,1189567
827,2053 Ogden Street,80205,Denver,CO,39.748473,-104.974893,607472
828,2228 Blake Street,,,,,,
829,2201 Lawrence Street,,,,,,
830,2239 Larimer Street,,,,,,
831,2245 Market Street,80205,Denver,CO,39.756319,-104.990439,
832,2227 Larimer Street,,,,,,
833,278 West Warren Avenue,,,,,,
834,217 South Pennsylvania Street,80209,Denver,CO,39.71254,-104.981857,599088
835,1011 Humboldt Street,80218,Denver,CO,39.732277,-104.969796,3138332
836,3830 Zenobia Street,80212,Denver,CO,39.769905,-105.051756,625808
837,219 Galapago Street,80223,Denver,CO,39.71976,-104.996683,453275
838,2510 South Gilpin Street,80210,Denver,CO,39.670969,-104.967285,609491
839,171 South Lincoln Street,,,,,,
840,31 Fox Street,80223,Denver,CO,39.717191,-104.995508,545060
841,1732 South Trenton Street,80231,Denver,CO,39.685029,-104.896444,271040
842,3757 Race Street,80205,Denver,CO,39.769182,-104.963769,523117
843,1260 22nd Street,,,,,,
844,2245 Market Street,80205,Denver,CO,39.756319,-104.990439,
845,2240 Blake Street,,,,,,
846,2162 Market Street,,,,,,
847,1356 Park Avenue West,,,,,,
848,2137 Larimer Street,,,,,,
849,2215 Market Street,,,,,,
850,2229 Larimer Street,,,,,,
851,2245 Market Street,80205,Denver,CO,39.756319,-104.990439,
852,2201 Lawrence Street,,,,,,
853,2140 Market Street,,,,,,
854,1344 Adams Street,,,,,,
855,5014 East 13th Avenue,,,,,,
856,2698 Marion Street,80205,Denver,CO,39.75561,-104.971758,753961
857,4521 Grant Street,80216,Denver,CO,39.77874,-104.983868,364543
858,5330 West 51st Avenue,80212,Denver,CO,39.788577,-105.054994,452326
859,2600 Sheridan Boulevard,,,,,,
860,2200 Larimer Street,80205,Denver,CO,39.754772,-104.989695,
861,2345 Walnut Street,80205,Denver,CO,39.757181,-104.989344,651483
862,5044 Akron Street,80238,Denver,CO,39.789188,-104.883371,608355
863,3225 South Leyden Street,80222,Denver,CO,39.658439,-104.916905,477973
864,3525 West 24th Avenue,80211,Denver,CO,39.752589,-105.033805,1076103
865,1842 Hooker Street,80204,Denver,CO,39.746139,-105.028084,466875
866,4560 Sheridan Boulevard,80212,Denver,CO,39.77957,-105.052913,399462
867,2151 Larimer Street,,,,,,
868,5026 Decatur Street,80221,Denver,CO,39.787991,-105.021291,349499
869,1275 Franklin Street,80218,Denver,CO,39.736573,-104.96871,1475702
870,2807 South Locust Street,80222,Denver,CO,39.66447,-104.91496,338133
871,770 East 17th Avenue,80203,Denver,CO,39.742983,-104.977908,
872,4029 Wyandot Street,80211,Denver,CO,39.772366,-105.015019,342904
873,745 East 18th Avenue,,,,,,
874,1000 East 16th Avenue,80218,Denver,CO,39.741451,-104.974407,
875,2830 Eliot Street,80211,Denver,CO,39.757939,-105.023304,581062
876,3262 Locust Street,,,,,,
877,7254 East 22nd Avenue,,,,,,
878,4198 East 14th Avenue,,,,,,
879,717 East 23rd Avenue,80205,Denver,CO,39.750929,-104.977667,586344
880,2633 South Race Street,80210,Denver,CO,39.668874,-104.964425,438879
881,5035 Stuart Street,80212,Denver,CO,39.788007,-105.043053,574613
882,675 South Clay Street,80219,Denver,CO,39.704391,-105.020673,408540
883,9273 East Oxford Drive,80237,Denver,CO,39.642258,-104.881091,282227
884,3173 East 35th Avenue,,,,,,
885,1423 East 30th Avenue,,,,,,
886,796 South Washington Street,80209,Denver,CO,39.702174,-104.978926,623010
887,840 Lincoln Street,,,,,,
888,995 Irving Street,80204,Denver,CO,39.732785,-105.030151,401333
889,3145 Marion Street,80205,Denver,CO,39.761609,-104.972455,449745
890,390 East Florida Avenue,,,,,,
891,810 South Cherry Street,,,,,,
892,3104 Meade Street,80211,Denver,CO,39.761416,-105.035466,508874
893,2305 Tremont Place,80205,Denver,CO,39.750133,-104.981025,
894,3123 Marion Street,80205,Denver,CO,39.761231,-104.972453,409810
895,1940 West 33rd Avenue,80211,Denver,CO,39.763025,-105.010755,1618099
896,3838 Vallejo Street,80211,Denver,CO,39.769973,-105.013215,730945
897,1673 Jackson Street,80206,Denver,CO,39.74332,-104.943346,707398
898,2540 West 42nd Avenue,80211,Denver,CO,39.774029,-105.018084,377950
899,4463 Pennsylvania Street,80216,Denver,CO,39.777689,-104.981605,243167
900,3405 Walnut Street,80205,Denver,CO,39.767103,-104.976494,999000
901,841 Elati Street,80204,Denver,CO,39.729754,-104.994368,504946
902,3428 Bryant Street,80211,Denver,CO,39.764979,-105.018626,681240
903,900 East 12th Avenue,,,,,,
904,49 South Clarkson Street,80209,Denver,CO,39.715524,-104.978317,669491
905,3161 West Clyde Place,80211,Denver,CO,39.768573,-105.029047,619689
906,1420 Stout Street,,,,,,
907,3323 Lafayette Street,,,,,,
908,2466 South High Street,80210,Denver,CO,39.671811,-104.964933,516272
909,1517 East 36th Avenue,80205,Denver,CO,39.767175,-104.969105,502527
910,1409 West 34th Avenue,80211,Denver,CO,39.764628,-105.00331,451836
911,845 East Ohio Avenue,80209,Denver,CO,39.70221,-104.977238,
912,1674 South Pennsylvania Street,80210,Denver,CO,39.686215,-104.981287,570014
913,729 East 10th Avenue,80203,Denver,CO,39.732219,-104.97805,627501
914,2880 Osceola Street,,,,,,
915,3135 Lafayette Street,80205,Denver,CO,39.761476,-104.971217,794846
916,1648 Little Raven Street,80202,Denver,CO,39.755745,-105.003788,1643666
917,4495 West Lakeridge Road,80219,Denver,CO,39.669672,-105.046321,796379
918,2238 Clarkson Street,80205,Denver,CO,39.750231,-104.976616,416099
919,2960 Arapahoe Street,80205,Denver,CO,39.7607,-104.978775,566936
920,5222 East Iowa Avenue,,,,,,
921,1617 Wolff Street,80204,Denver,CO,39.742567,-105.048994,541256
922,3849 Jackson Street,80205,Denver,CO,39.7699,-104.942529,404700
923,4700 West 13th Avenue,80204,Denver,CO,39.736478,-105.047996,
924,2978 Galena Street,,,,,,
925,2200 Larimer Street,80205,Denver,CO,39.754772,-104.989695,
926,1441 East Wesley Avenue,80210,Denver,CO,39.673262,-104.970258,515150
927,1219 South Corona Street,80210,Denver,CO,39.694317,-104.974906,742784
928,1240 Santa Fe Drive,80223,Denver,CO,39.693877,-104.992159,
929,1847 West 35th Avenue,80211,Denver,CO,39.765827,-105.00912,765738
930,1730 Julian Street,80204,Denver,CO,39.744685,-105.031135,513656
931,1410 Gilpin Street,80218,Denver,CO,39.73871,-104.966873,
932,3814 South Hillcrest Drive,,,,,,
933,3037 Williams Street,,,,,,
934,3822 South Hillcrest Drive,,,,,,
935,313 West Bayaud Avenue,,,,,,
936,1426 Champa Street,,,,,,
937,3355 West 18th Avenue,80204,Denver,CO,39.745347,-105.030859,570638
938,4400 South Quebec Street,80237,Denver,CO,39.637102,-104.903251,
939,5121 Quitman Street,80212,Denver,CO,39.790044,-105.040767,614288
940,3276 Olive Street,80207,Denver,CO,39.763398,-104.906644,407485
941,1340 Vrain Street,80204,Denver,CO,39.737295,-105.046026,550389
942,2649 South Race Street,80210,Denver,CO,39.668464,-104.964428,570569
943,5115 Sheridan Boulevard,80212,Denver,CO,39.789071,-105.053477,404071
944,1577 Saint Paul Street,80206,Denver,CO,39.741655,-104.951607,749783
945,4261 Hooker Street,80211,Denver,CO,39.775918,-105.029083,668945
946,3527 Gaylord Street,80205,Denver,CO,39.766298,-104.961322,573050
947,4732 West 33rd Avenue,80212,Denver,CO,39.763661,-105.048554,353874
948,1264 Washington Street,80203,Denver,CO,39.73634,-104.978398,713218
949,825 West 11th Avenue,80204,Denver,CO,39.733808,-104.998331,
950,401 Clarkson Street,80218,Denver,CO,39.722639,-104.97784,558656
951,1617 East Alameda Avenue,80209,Denver,CO,39.71127,-104.968363,2816014
952,3984 South Rosemary Way,,,,,,
953,8442 East 49th Place,80238,Denver,CO,39.786704,-104.889982,559389
954,36 South Logan Street,,,,,,
955,4918 Harlan Street,80212,Denver,CO,39.785999,-105.062265,446375
956,598 Kalamath Street,,,,,,
957,2227 Glenarm Place,,,,,,
958,2846 Lafayette Street,80205,Denver,CO,39.75792,-104.970527,598498
959,1217 East 9th Avenue,80218,Denver,CO,39.730605,-104.972642,
960,3226 West Colorado Avenue,,,,,,
961,3170 East 5th Avenue,80206,Denver,CO,39.723955,-104.950263,1510488
962,341 Clarkson Street,80218,Denver,CO,39.721009,-104.977825,516926
963,1287 Wolff Street,,,,,,
964,3444 Navajo Street,80211,Denver,CO,39.765295,-105.004013,931185
965,3389 Saint Paul Street,,,,,,
966,2862 Larimer Street,,,,,,
967,1175 South Pennsylvania Street,,,,,,
968,84 South Lincoln Street,80209,Denver,CO,39.714966,-104.985904,
969,157 West 2nd Avenue,80223,Denver,CO,39.719661,-104.990608,
970,1735 West 33rd Avenue,80211,Denver,CO,39.763565,-105.007288,1837207
971,663 South High Street,80209,Denver,CO,39.704511,-104.965489,1825102
972,1312 South Edison Way,80222,Denver,CO,39.692471,-104.930294,529539
973,321 West 3rd Avenue,80223,Denver,CO,39.721102,-104.992563,556510
974,1085 Jersey Street,80220,Denver,CO,39.733336,-104.919793,551486
975,1362 Mariposa Street,80204,Denver,CO,39.738018,-105.002419,480144
976,1827 Pearl Street,80203,Denver,CO,39.745378,-104.980169,739976
977,8372 East 26th Avenue,,,,,,
978,3132 West Colorado Avenue,,,,,,
979,60 South Lincoln Street,80209,Denver,CO,39.715342,-104.985899,
980,3216 Vine Street,80205,Denver,CO,39.762346,-104.96186,446856
981,1409 East 24th Avenue,80205,Denver,CO,39.75219,-104.970502,459123
982,84 Inca Street,80223,Denver,CO,39.718128,-104.997288,565155
983,2251 Hooker Street,80211,Denver,CO,39.751018,-105.028758,813280
984,2435 West Argyle Place,80211,Denver,CO,39.761415,-105.016626,529976
985,2080 South Josephine Street,80210,Denver,CO,39.678929,-104.957701,
986,1112 Saint Paul Street,80206,Denver,CO,39.733974,-104.950264,
987,1070 Mariposa Street,80204,Denver,CO,39.733406,-105.002452,391088
988,2725 West 21st Avenue,80211,Denver,CO,39.748951,-105.021211,611640
989,9003 East 25th Drive,,,,,,
990,3900 Wyandot Street,80211,Denver,CO,39.770646,-105.014375,545621
991,932 Inca Street,,,,,,
992,1160 Lincoln Street,80210,Denver,CO,39.695485,-104.985979,1042040
993,5095 Alcott Street,80221,Denver,CO,39.789097,-105.01731,335557
994,3050 West 36th Avenue,80211,Denver,CO,39.766256,-105.026627,674958
995,4737 Zuni Street,80211,Denver,CO,39.782689,-105.016152,399160
996,777 South Ogden Street,80209,Denver,CO,39.702502,-104.976074,867040
997,785 South Ogden Street,80209,Denver,CO,39.702402,-104.976074,618392
998,1314 Lipan Street,80204,Denver,CO,39.737212,-105.001184,765491
999,1554 Marion Street,80218,Denver,CO,39.741088,-104.971796,668248
1000,1564 Newton Street,80204,Denver,CO,39.741993,-105.03666,548099
1001,1877 West Louisiana Avenue,,,,,,
1002,601 East 19th Avenue,,,,,,
1003,3630 West 32nd Avenue,,,,,,
1004,3344 Meade Street,80211,Denver,CO,39.764811,-105.035466,656874
1005,2666 Perry Street,80212,Denver,CO,39.756065,-105.03895,607454
1006,3485 West Louisiana Avenue,80219,Denver,CO,39.693279,-105.033127,367697
1007,4532 Federal Boulevard,80211,Denver,CO,39.779081,-105.024968,
1008,174 South Corona Street,80209,Denver,CO,39.713383,-104.974241,833424
1009,1 Osceola Street,80030,Westminster,CO,39.835027,-105.039419,397384
1010,1144 Lafayette Street,80218,Denver,CO,39.734526,-104.970339,983747
1011,5140 Vallejo Street,80221,Denver,CO,39.790048,-105.013212,501209
1012,1970 South Logan Street,80210,Denver,CO,39.680855,-104.982507,
1013,3670 East Bruce Randolph Avenue,,,,,,
1014,656 East Iowa Avenue,80210,Denver,CO,39.687341,-104.979688,743857
1015,3497 Garfield Street,,,,,,
1016,35 South Bryant Street,80219,Denver,CO,39.715956,-105.01857,351496
1017,170 South Jackson Street,80209,Denver,CO,39.713602,-104.942085,361665
1018,1121 Downing Street,80210,Denver,CO,39.69613,-104.973758,970997
1019,5036 Tennyson Street,80212,Denver,CO,39.788058,-105.043602,878994
1020,721 Garfield Street,80206,Denver,CO,39.727779,-104.944298,593693
1021,1379 West Alaska Place,80223,Denver,CO,39.708763,-105.005665,324268
1022,4058 Shoshone Street,80211,Denver,CO,39.772784,-105.009293,420187
1023,63 South Logan Street,80209,Denver,CO,39.717745,-104.98295,645903
1024,2041 Lawrence Street,80205,Denver,CO,39.753055,-104.99121,
1025,234 Logan Street,80203,Denver,CO,39.720025,-104.982283,281870
1026,3803 South Jasmine Street,,,,,,
1027,5050 West 46th Avenue,80212,Denver,CO,39.780038,-105.051748,697766
1028,1868 South Logan Street,80210,Denver,CO,39.682779,-104.982643,845097
1029,3615 Williams Street,80205,Denver,CO,39.767295,-104.966281,513126
1030,711 South Clarkson Street,80209,Denver,CO,39.703639,-104.978423,662172
1031,1155 East 9th Avenue,80218,Denver,CO,39.730919,-104.9735,
1032,4575 Wolff Street,80212,Denver,CO,39.779765,-105.048914,673175
1033,279 Delaware Street,80223,Denver,CO,39.720755,-104.993117,439959
1034,2485 Curtis Street,,,,,,
1035,930 15th Street,,,,,,
1036,1312 East 22nd Avenue,80205,Denver,CO,39.749248,-104.971688,655269
1037,2350 East Louisiana Avenue,80210,Denver,CO,39.692799,-104.958949,632854
1038,580 South Sherman Street,80209,Denver,CO,39.706005,-104.984823,577878
1039,7114 East 17th Avenue,80203,Denver,CO,39.743007,-104.983102,
1040,2555 West 33rd Avenue,80211,Denver,CO,39.763509,-105.018658,663139
1041,2100 South Ash Street,,,,,,
1042,3225 South Elm Street,80222,Denver,CO,39.658367,-104.929826,421761
1043,2131 18th Street,80202,Denver,CO,39.757655,-105.003307,1831624
1044,543 South Lincoln Street,,,,,,
1045,5069 East 29th Avenue,,,,,,
1046,1277 Raleigh Street,80204,Denver,CO,39.736203,-105.041954,534882
1047,3737 West 32nd Avenue,,,,,,
1048,1240 Pennsylvania Street,80210,Denver,CO,39.69395,-104.981253,563022
1049,1238 Mariposa Street,80204,Denver,CO,39.736015,-105.00245,375276
1050,2531 Ogden Street,,,,,,
1051,1070 Downing Street,80218,Denver,CO,39.73334,-104.972646,640991
1052,3697 East 38th Avenue,,,,,,
1053,290 South Grant Street,80209,Denver,CO,39.711406,-104.983669,683998
1054,4314 Bryant Street,80211,Denver,CO,39.775707,-105.018536,547187
1055,1031 Marion Street,80218,Denver,CO,39.732578,-104.972106,955896
1056,4710 West 34th Avenue,80212,Denver,CO,39.764655,-105.04799,1256058
1057,3139 West Mexico Avenue,,,,,,
1058,455 Pennsylvania Street,80203,Denver,CO,39.723563,-104.981455,
1059,3525 West 49th Avenue,80221,Denver,CO,39.785752,-105.034069,559226
1060,1615 Martin Luther King Jr Boulevard,,,,,,
1061,630 East 16th Avenue,80203,Denver,CO,39.741546,-104.979173,
1062,2525 West Arkansas Avenue,80219,Denver,CO,39.69167,-105.017075,365261
1063,5727 Biscay Street,,,,,,
1064,534 West 4th Avenue,80223,Denver,CO,39.722256,-104.995036,469019
1065,2457 Grove Street,80211,Denver,CO,39.753491,-105.027167,362844
1066,166 South Logan Street,80209,Denver,CO,39.71349,-104.982368,
1067,2299 East Warren Avenue,,,,,,
1068,3 South Parker Road,80231,Denver,CO,39.698036,-104.900934,222256
1069,1824 South Grant Street,80210,Denver,CO,39.683476,-104.983705,682838
1070,3648 South Ulster Street,,,,,,
1071,1423 East 29th Avenue,,,,,,
1072,2821 Stuart Street,80212,Denver,CO,39.757682,-105.043131,963192
1073,1500 Curtis Street,,,,,,
1074,5250 Cherry Creek South Drive,80246,Denver,CO,39.698285,-104.926961,
1075,2350 Colorado Boulevard,80207,Denver,CO,39.752089,-104.940244,875791
1076,1420 Stout Street,,,,,,
1077,1428 West Mississippi Avenue,,,,,,
1078,8150 East 28th Place,,,,,,
1079,1010 South Josephine Street,80209,Denver,CO,39.698086,-104.957788,1147956
1080,4372 East Evans Avenue,,,,,,
1081,3270 Vrain Street,80212,Denver,CO,39.7636,-105.046639,780146
1082,939 East 11th Avenue,80218,Denver,CO,39.733962,-104.975554,
1083,630 Newton Street,80204,Denver,CO,39.726819,-105.036967,404072
1084,3125 West Colorado Avenue,80219,Denver,CO,39.685228,-105.026772,478074
1085,1400 Osceola Street,80204,Denver,CO,39.738667,-105.037805,994524
1086,2557 Marion Street,80205,Denver,CO,39.754311,-104.972473,607683
1087,117 West Byers Place,,,,,,
1088,8199 East 28th Place,80238,Denver,CO,39.75743,-104.893032,678115
1089,2238 East 31st Avenue,,,,,,
1090,2 South Lincoln Street,80209,Denver,CO,39.716404,-104.985979,838258
1091,2796 Utica Street,,,,,,
1092,3369 South Yosemite Street,,,,,,
1093,3334 South Yosemite Street,,,,,,
1094,6044 East Cedar Avenue,,,,,,
1095,7936 East 19th Avenue,,,,,,
1096,1350 South Washington Street,80210,Denver,CO,39.692043,-104.978925,481747
1097,1025 Grape Street,80207,Denver,CO,39.748041,-104.924951,671607
1098,3586 Akron Court,80238,Denver,CO,39.766648,-104.882923,636508
1099,2815 West 36th Avenue,80211,Denver,CO,39.766983,-105.022382,451959
1100,3350 West 19th Avenue,80204,Denver,CO,39.746173,-105.030792,394891
1101,4413 East Montana Place,,,,,,
1102,2735 Zenobia Street,80212,Denver,CO,39.756606,-105.052389,544557
1103,832 26th Street,80205,Denver,CO,39.755492,-104.98166,425063
1104,3437 Vallejo Street,80211,Denver,CO,39.765156,-105.013103,587422
1105,2441 West 35th Avenue,80211,Denver,CO,39.765913,-105.016888,547607
1106,1620 West 34th Avenue,80211,Denver,CO,39.764277,-105.006006,392653
1107,2675 West Arkansas Avenue,80219,Denver,CO,39.690992,-105.019721,
1108,3060 Josephine Street,80205,Denver,CO,39.760547,-104.958226,410893
1109,3315 Columbine Street,80205,Denver,CO,39.763536,-104.95766,567595
1110,1219 South Raritan Street,80223,Denver,CO,39.694594,-105.008985,394450
1111,2348 East 13th Avenue,,,,,,
1112,4162 Hooker Street,80211,Denver,CO,39.774237,-105.028476,685764
1113,2117 South Corona Street,,,,,,
1114,2615 West 25th Avenue,80211,Denver,CO,39.75396,-105.019573,
1115,1163 West 38th Avenue,,,,,,
1116,1445 Detroit Street,80206,Denver,CO,39.739204,-104.954458,
1117,1145 South Perry Street,80219,Denver,CO,39.695911,-105.040547,322222
1118,476 South Sherman Street,80209,Denver,CO,39.707861,-104.984875,564608
1119,930 South Pennsylvania Street,80209,Denver,CO,39.699709,-104.981221,826169
1120,1715 East 17th Avenue,80218,Denver,CO,39.743403,-104.966735,748186
1121,3381 Fillmore Street,80210,Denver,CO,39.673431,-104.954081,2843753
1122,1052 Lipan Street,80204,Denver,CO,39.733119,-105.001202,400606
1123,1525 South Quieto Court,80223,Denver,CO,39.688976,-105.008117,318832
1124,5228 East Thrill Place,,,,,,
1125,1212 Columbine Street,80206,Denver,CO,39.735511,-104.957113,1023400
1126,2942 Gaylord Street,80205,Denver,CO,39.759088,-104.960774,610605
1127,1070 Knox Court,80204,Denver,CO,39.7343,-105.031828,402501
1128,979 Lipan Street,80204,Denver,CO,39.731929,-105.001918,618786
1129,4555 Elm Court,80211,Denver,CO,39.779399,-105.023135,494126
1130,1530 King Street,80204,Denver,CO,39.74109,-105.032724,
1131,2136 South Ash Street,,,,,,
1132,1010 31st Street,80205,Denver,CO,39.761252,-104.977234,560098
1133,300 Sherman Street,80203,Denver,CO,39.721088,-104.984665,666810
1134,2351 East Louisiana Avenue,80210,Denver,CO,39.693095,-104.958949,518538
1135,1669 Erie Street,80211,Denver,CO,39.761043,-105.01094,453259
1136,1545 Ogden Street,80210,Denver,CO,39.688509,-104.976081,828219
1137,19 East Maple Avenue,80209,Denver,CO,39.714042,-104.986565,399049
1138,7020 East 35th Avenue,,,,,,
1139,4117 Tejon Street,80211,Denver,CO,39.773326,-105.011558,504858
1140,2109 East 16th Avenue,80206,Denver,CO,39.741876,-104.961842,1015983
1141,7800 East 28th Drive,,,,,,
1142,7537 Montview Boulevard,,,,,,
1143,1632 Vine Street,80206,Denver,CO,39.742285,-104.961902,765056
1144,4536 Quieto Court,80211,Denver,CO,39.778553,-105.006699,329524
1145,1509 Osceola Street,,,,,,
1146,1626 South Xavier Street,80219,Denver,CO,39.687233,-105.0497,315349
1147,3221 Quitman Street,80212,Denver,CO,39.762551,-105.040799,589819
1148,3263 South Glencoe Street,80222,Denver,CO,39.657413,-104.92557,397263
1149,1433 South Carlan Court,80219,Denver,CO,39.690339,-105.018791,367604
1150,3 East Virginia Avenue,,,,,,
1151,1038 Buchtel Boulevard South,,,,,,
1152,2499 West 50th Avenue,,,,,,
1153,807 East 5th Avenue,80218,Denver,CO,39.724268,-104.977235,
1154,166 South Logan Street,80209,Denver,CO,39.71349,-104.982368,
1155,237 Galapago Street,80223,Denver,CO,39.720102,-104.996698,469032
1156,3890 Winona Court,80212,Denver,CO,39.770921,-105.047136,1343838
1157,6250 East 22nd Avenue,,,,,,
1158,1466 West Tennessee Avenue,80223,Denver,CO,39.697828,-105.003132,331337
1159,1359 Gaylord Street,80206,Denver,CO,39.73793,-104.961362,258094
1160,1235 Glenarm Place,,,,,,
1161,4400 South Quebec Street,80237,Denver,CO,39.637102,-104.903251,
1162,2905 Federal Boulevard,,,,,,
1163,2114 East 14th Avenue,80206,Denver,CO,39.738172,-104.961885,
1164,1882 Central Street,,,,,,
1165,1415 East 29th Avenue,80205,Denver,CO,39.758407,-104.970526,488755
1166,548 Delaware Street,80204,Denver,CO,39.725023,-104.992579,486602
1167,1243 Vine Street,80206,Denver,CO,39.735827,-104.962603,
1168,2033 Rosemary Street,,,,,,
1169,3934 Humboldt Street,80205,Denver,CO,39.769609,-104.968949,349003
1170,3498 Dexter Street,,,,,,
1171,3226 Wyandot Street,80211,Denver,CO,39.76257,-105.014022,1053221
1172,3035 East Alameda Avenue,80209,Denver,CO,39.711544,-104.951415,2445897
1173,3822 Winona Court,80212,Denver,CO,39.770029,-105.047125,
1174,820 15th Street,80202,Denver,CO,39.745259,-104.995032,
1175,1210 South Dale Court,80219,Denver,CO,39.694548,-105.02121,343780
1176,1309 Amherst Circle,80210,Denver,CO,39.666143,-104.972261,
1177,2854 Larimer Street,,,,,,
1178,20404 East 48th Place,,,,,,
1179,1882 Race Street,80206,Denver,CO,39.746326,-104.963266,
1180,2319 Hooker Street,80211,Denver,CO,39.751614,-105.028697,611883
1181,19766 East 54th Avenue,,,,,,
1182,1905 East 28th Avenue,80205,Denver,CO,39.757251,-104.964424,695038
1183,125 Grove Street,80219,Denver,CO,39.718629,-105.026692,399650
1184,7212 East 16th Avenue,,,,,,
1185,4135 Dunkirk Way,,,,,,
1186,3220 Meade Street,80211,Denver,CO,39.762684,-105.03547,
1187,3530 East 8th Avenue,80206,Denver,CO,39.728936,-104.945395,768678
1188,5882 East 33rd Avenue,,,,,,
1189,2915 Franklin Street,80205,Denver,CO,39.758616,-104.968763,393716
1190,1425 Saint Paul Street,80206,Denver,CO,39.738838,-104.950957,734364
1191,2532 South Birch Street,80222,Denver,CO,39.669823,-104.936373,463285
1192,4516 West 36th Avenue,80212,Denver,CO,39.766393,-105.045357,597074
1193,1611 Hooker Street,80204,Denver,CO,39.743059,-105.028743,894856
1194,1221 Galapago Street,80204,Denver,CO,39.73572,-104.997319,672397
1195,1127 20th Street,80202,Denver,CO,39.75263,-104.991972,
1196,1836 South Lincoln Street,80210,Denver,CO,39.683219,-104.986027,595097
1197,315 Logan Street,80203,Denver,CO,39.742209,-104.981973,
1198,4358 Ceylon Court,,,,,,
1199,2523 Stout Street,80205,Denver,CO,39.75478,-104.981979,516450
1200,3075 Martin Luther King Jr Boulevard,,,,,,
1201,532 East 1st Avenue,80203,Denver,CO,39.718113,-104.980652,640806
1202,1090 Lincoln Street,,,,,,
1203,7755 East Quincy Avenue,80237,denver,CO,39.63839,-104.89482,295999
1204,2547 East 28th Avenue,,,,,,
1205,3359 Ivy Street,,,,,,
1206,2107 West 29th Avenue,80211,Denver,CO,39.758652,-105.012039,
1207,305 Park Avenue West,80205,Denver,CO,39.74975,-104.979937,
1208,2829 East 16th Avenue,80206,Denver,CO,39.742226,-104.953798,
1209,1152 South Alcott Street,80219,Denver,CO,39.695801,-105.016228,347387
1210,1315 South Lincoln Street,80210,Denver,CO,39.69267,-104.986592,620502
1211,119 South Locust Street,80222,Denver,CO,39.751595,-104.913648,303106
1212,2423 East 11th Avenue,80206,Denver,CO,39.733974,-104.957942,599257
1213,3711 East 17th Avenue,,,,,,
1214,491 East Cedar Avenue,,,,,,
1215,2573 South Acoma Street,,,,,,
1216,2208 South Grant Street,80210,Denver,CO,39.676406,-104.983702,612057
1217,3719 Kalamath Street,80211,DENVER,CO,39.7685,-105.000894,
1218,2621 York Street,80210,Denver,CO,39.668989,-104.960908,527571
1219,800 Kalamath Street,,,,,,
1220,3600 Lowell Boulevard,80236,Denver,CO,39.650695,-105.034269,
1221,3050 South Forest Street,80222,Denver,CO,39.662519,-104.927006,440413
1222,2942 Arapahoe Street,80205,Denver,CO,39.7604,-104.978942,436635
1223,4994 Alcott Street,80221,Denver,CO,39.787281,-105.016645,626899
1224,1457 31st Street,,,,,,
1225,2720 Columbine Street,80205,Denver,CO,39.756268,-104.956958,551733
1226,2632 West 26th Avenue,80211,Denver,CO,39.754464,-105.019986,857060
1227,2830 Josephine Street,80205,Denver,CO,39.757547,-104.9582,622623
1228,7467 East 11th Avenue,,,,,,
1229,910 Santa Fe Drive,80204,Denver,CO,39.730866,-104.998315,150867
1230,2685 Grape Street,80207,Denver,CO,39.756282,-104.924921,793406
1231,3030 West 19th Avenue,80204,Denver,CO,39.746199,-105.02627,534772
1232,8340 East Colfax Avenue,80207,Denver,CO,39.749489,-104.902439,499091
1233,4059 Alcott Street,80211,Denver,CO,39.772771,-105.017764,545909
1234,417 West 4th Avenue,80223,Denver,CO,39.722775,-104.993268,978374
1235,1647 Gaylord Street,80206,Denver,CO,39.742513,-104.961332,732809
1236,3137 West 34th Avenue,80211,Denver,CO,39.764894,-105.028441,609188
1237,2983 Osceola Street,80212,Denver,CO,39.760029,-105.038441,506595
1238,1330 Fox Street,80204,Denver,CO,39.737611,-104.994976,
1239,1333 Jackson Street,80206,Denver,CO,39.737458,-104.943065,605801
1240,1234 East 27th Avenue,80205,Denver,CO,39.755582,-104.972318,308907
1241,4932 Trenton Street,,,,,,
1242,3569 Cook Street,,,,,,
1243,2825 East 9th Avenue,80206,Denver,CO,39.730674,-104.953207,1222915
1244,1250 Zenobia Street,80204,Denver,CO,39.736075,-105.051767,482105
1245,2907 West 46th Avenue,80211,Denver,CO,39.780357,-105.023127,460914
1246,626 Osceola Street,80204,Denver,CO,39.726719,-105.038064,374094
1247,3710 Kalamath Street,80211,Denver,CO,39.768466,-105.000254,474727
1248,236 East Louisiana Avenue,,,,,,
1249,4359 Pecos Street,,,,,,
1250,1201 East 9th Avenue,80218,Denver,CO,39.730605,-104.972642,
1251,1724 West 43rd Avenue,80211,Denver,CO,39.775178,-105.008452,513801
1252,4566 Wyandot Street,80211,Denver,CO,39.779426,-105.013949,351948
1253,3469 West 35th Avenue,80211,Denver,CO,39.765856,-105.033858,530227
1254,3457 Bryant Street,80211,Denver,CO,39.765508,-105.019274,927341
1255,2524 Clermont Street,80222,Denver,CO,39.669941,-104.935132,576402
1256,4543 East 16th Avenue,80220,Denver,CO,39.741627,-104.934417,628515
1257,1523 Market Street,,,,,,
1258,801 South Emerson Street,80209,Denver,CO,39.701876,-104.977246,525872
1259,2822 Race Street,80205,Denver,CO,39.757492,-104.963101,664208
1260,1800 Grove Street,80204,Denver,CO,39.745444,-105.026559,287822
1261,124 South Logan Street,80209,Denver,CO,39.71422,-104.982383,580552
1262,6795 East Tennessee Avenue,,,,,,
1263,4104 Winona Court,80212,Denver,CO,39.773088,-105.047137,1524423
1264,2310 Franklin Street,80205,Denver,CO,39.750983,-104.968143,386579
1265,2509 Ogden Street,80205,Denver,CO,39.75352,-104.974748,482569
1266,1614 East 16th Avenue,80218,Denver,CO,39.741438,-104.966871,439713
1267,3430 Clay Street,80211,Denver,CO,39.765076,-105.020166,516329
1268,2753 West Irvington Place,80219,Denver,CO,39.717773,-105.021509,347185
1269,3324 Tejon Street,80211,Denver,CO,39.763839,-105.010325,833026
1270,3642 West 39th Avenue,,,,,,
1271,3063 Zuni Street,80211,Denver,CO,39.760578,-105.016053,852963
1272,3025 Umatilla Street,80211,Denver,CO,39.760221,-105.012169,496742
1273,850 Lincoln Street,,,,,,
1274,6991 East Quincy Avenue,,,,,,
1275,913 15th Street,,,,,,
1276,3275 West 18th Avenue,80204,Denver,CO,39.745336,-105.029558,670467
1277,1921 West 47th Avenue,80211,Denver,CO,39.781621,-105.010094,447233
1278,800 Grant Street,80203,Denver,CO,39.745567,-104.983956,
1279,419 West 13th Avenue,80204,Denver,CO,39.737001,-104.993389,
1280,4353 East Colfax Avenue,,,,,,
1281,852 South Washington Street,80209,Denver,CO,39.701017,-104.978921,
1282,1300 Clayton Street,80206,Denver,CO,39.73698,-104.9548,301488
1283,1927 West 33rd Avenue,80211,Denver,CO,39.763479,-105.010282,677773
1284,99 West Bayaud Avenue,80223,Denver,CO,39.715047,-104.989769,860464
1285,1910 South Pearl Street,80210,Denver,CO,39.681855,-104.98018,748618
1286,651 Grant Street,,,,,,
1287,1822 East 31st Avenue,80205,Denver,CO,39.76052,-104.965218,440627
1288,3314 Marion Street,80205,Denver,CO,39.763596,-104.971757,362195
1289,1632 Jackson Street,,,,,,
1290,2521 Champa Street,80205,Denver,CO,39.755437,-104.982874,515549
1291,1212 Columbine Street,80206,Denver,CO,39.735511,-104.957113,1023400
1292,1643 South Clayton Street,,,,,,
1293,5141 Chambers Road,,,,,,
1294,3018 Champa Street,,,,,,
1295,6795 East Tennessee Avenue,,,,,,
1296,2475 West Dunkeld Place,,,,,,
1297,2499 Decatur Street,80211,Denver,CO,39.753454,-105.022287,949876
1298,2820 Welton Street,80205,Denver,CO,39.755862,-104.9761,
1299,4338 East Montview Boulevard,,,,,,
1300,867 South Corona Street,80209,Denver,CO,39.700757,-104.974885,555044
1301,290 South Clarkson Street,80209,Denver,CO,39.711247,-104.977831,487079
1302,1026 28th Street,80205,Denver,CO,39.758759,-104.981083,363579
1303,928 West 13th Avenue,80204,Denver,CO,39.736669,-104.999544,291311
1304,5798 East Alameda Avenue,,,,,,
1305,3073 West 18th Avenue,80204,Denver,CO,39.745358,-105.026368,241027
1306,4177 Julian Street,80211,Denver,CO,39.774461,-105.031411,645434
1307,339 Forest Street,,,,,,
1308,2420 Franklin Street,80205,Denver,CO,39.752356,-104.968051,883442
1309,3034 Race Street,80205,Denver,CO,39.760191,-104.963088,463063
1310,3553 Ivanhoe Street,,,,,,
1311,3401 West 34th Avenue,80211,Denver,CO,39.764699,-105.016633,
1312,4419 West Colfax Avenue,80204,Denver,CO,39.736793,-105.044663,315518
1313,2417 East 12th Avenue,80206,Denver,CO,39.735308,-104.958146,843543
1314,4223 East 11th Avenue,,,,,,
1315,140 South Eliot Street,80219,Denver,CO,39.714108,-105.023546,368630
1316,1155 30th Street,,,,,,
1317,901 Colorado Boulevard,80241,Thornton,CO,39.926537,-104.942154,
1318,1373 South Josephine Street,80210,Denver,CO,39.691563,-104.958432,596796
1319,1560 Vine Street,80206,Denver,CO,39.741169,-104.961906,1350415
1320,303 South Broadway,80210,Denver,CO,39.687177,-104.987147,426481
1321,3539 Milwaukee Street,,,,,,
1322,15555 East 40th Avenue,80239,Denver,CO,39.775748,-104.807499,
1323,3275 Ivy Street,,,,,,
1324,4518 West 34th Avenue,80212,Denver,CO,39.76457,-105.045659,427097
1325,15475 East Andrews Drive,80239,Denver,CO,39.774317,-104.80731,205943
1326,3501 West Louisiana Avenue,80219,Denver,CO,39.693279,-105.033321,340273
1327,936 Kalamath Street,80204,Denver,CO,39.731221,-104.999748,981675
1328,3158 West 16th Avenue,,,,,,
1329,720 South Logan Street,80209,Denver,CO,39.703331,-104.982425,780930
1330,3225 Clay Street,80211,Denver,CO,39.762537,-105.020822,512046
1331,3256 Clay Street,80211,Denver,CO,39.763118,-105.020277,447200
1332,3121 West 17th Avenue,80204,Denver,CO,39.744227,-105.027548,465179
1333,1425 East 26th Avenue,80205,Denver,CO,39.754668,-104.969987,476887
1334,1758 Washington Street,80203,Denver,CO,39.744334,-104.978415,682910
1335,1205 West 39th Avenue,80211,Denver,CO,39.770701,-105.001965,346420
1336,3658 Clay Street,80211,Denver,CO,39.767796,-105.020129,318762
1337,4122 West Greenwood Place,80236,Denver,CO,39.655681,-105.040211,449997
1338,2401 Larimer Street,80202,Denver,CO,39.748866,-104.998117,1278081
1339,858 South Pennsylvania Street,80209,Denver,CO,39.700882,-104.98144,1404759
1340,3171 West 38th Avenue,80211,Denver,CO,39.769644,-105.029298,507262
1341,2100 West 30th Avenue,,,,,,
1342,1824 West 39th Avenue,80211,Denver,CO,39.770259,-105.008685,655393
1343,2131 Downing Street,80205,Denver,CO,39.748906,-104.973534,746840
1344,4560 Osceola Street,80212,Denver,CO,39.779498,-105.037767,389819
1345,3459 Navajo Street,80211,Denver,CO,39.765495,-105.004455,806942
1346,2826 Umatilla Street,80211,Denver,CO,39.757712,-105.011406,
1347,3222 Raleigh Street,80212,Denver,CO,39.762559,-105.041345,544694
1348,978 Lipan Street,80204,Denver,CO,39.731937,-105.00126,434707
1349,251 East 12th Avenue,,,,,,
1350,850 Lincoln Street,,,,,,
1351,1260 22nd Street,,,,,,
1352,3233 Osage Street,80211,Denver,CO,39.762683,-105.005595,401887
1353,2520 Gaylord Street,80205,Denver,CO,39.753679,-104.960623,606021
1354,5138 West 46th Avenue,80212,Denver,CO,39.780037,-105.053003,368593
1355,1128 East 21st Avenue,,,,,,
1356,3245 Gaylord Street,80205,Denver,CO,39.762863,-104.961329,569469
1357,3151 West 25th Avenue,80211,Denver,CO,39.7539,-105.028134,662978
1358,4145 Yates Street,80212,Denver,CO,39.773901,-105.051207,502919
1359,1033 26th Street,80205,Denver,CO,39.757195,-104.983206,309677
1360,3300 Elizabeth Street,80205,Denver,CO,39.763391,-104.95571,520413
1361,21337 48th Drive,,,,,,
1362,1536 Holly Street,80220,Denver,CO,39.740943,-104.921942,527428
1363,19061 East 51st Place,,,,,,
1364,4430 Raleigh Street,80212,Denver,CO,39.777257,-105.041265,492837
1365,200 East 9th Avenue,,,,,,
1366,8919 East 53rd Avenue,,,,,,
1367,5820 West 50th Avenue,80212,Denver,CO,39.787615,-105.060468,569071
1368,1038 Lipan Street,80204,Denver,CO,39.732855,-105.00121,407578
1369,998 South Pearl Street,80209,Denver,CO,39.698581,-104.980064,664720
1370,1018 Lipan Street,80204,Denver,CO,39.732559,-105.001456,406966
1371,1890 Gaylord Street,,,,,,
1372,9767 West Stanford Avenue,80123,Denver,CO,39.634885,-105.107769,432492
1373,9788 West Stanford Avenue,,,,,,
1374,3421 Valentia Street,,,,,,
1375,2652 Front View Crescent Drive,80211,Denver,CO,39.749521,-105.019806,490579
1376,2635 West Holden Place,80204,Denver,CO,39.735826,-105.020279,395298
1377,2743 West Yale Avenue,,,,,,
1378,1510 Wazee Street,80202,Denver,CO,39.7503,-105.000809,
1379,1045 West 10th Avenue,80204,Denver,CO,39.732288,-105.001357,498309
1380,1693 South Quitman Street,80219,Denver,CO,39.685518,-105.041425,396253
1381,4430 West 32nd Avenue,80212,Denver,CO,39.76187,-105.044778,738240
1382,1513 Harrison Street,80206,Denver,CO,39.740463,-104.941947,311101
1383,5551 Xanadu Street,80239,Denver,CO,39.796115,-104.830137,338344
1384,65 Ogden Street,80218,Denver,CO,39.717666,-104.975931,280618
1385,4350 Xavier Street,80212,Denver,CO,39.775713,-105.049446,740497
1386,3458 Walnut Street,,,,,,
1387,1414 South Winona Way,80219,Denver,CO,39.691044,-105.048104,378259
1388,1295 West 10th Avenue,,,,,,
1389,2915 West 44th Avenue,,,,,,
1390,1247 Santa Fe Drive,,,,,,
1391,1160 East Asbury Avenue,,,,,,
1392,2516 High Street,80205,Denver,CO,39.75363,-104.96436,
1393,4534 East 28th Avenue,,,,,,
1394,1456 Josephine Street,80206,Denver,CO,39.739469,-104.958452,708038
1395,2217 West 40th Avenue,80211,Denver,CO,39.77187,-105.013958,392321
1396,1776 Race Street,80206,Denver,CO,39.744433,-104.963125,
1397,1420 Stout Street,,,,,,
1398,4338 Raritan Street,80211,Denver,CO,39.776056,-105.008449,601981
1399,2219 West 32nd Avenue,,,,,,
1400,1269 Elati Street,,,,,,
1401,3035 West 45th Avenue,80211,Denver,CO,39.778181,-105.026085,609478
1402,16161 East Bolling Drive,,,,,,
1403,2433 Curtis Street,,,,,,
1404,2726 Stout Street,80205,Denver,CO,39.756343,-104.978988,775843
1405,1021 East 24th Avenue,,,,,,
1406,4275 West 5th Avenue,,,,,,
1407,3930 West 14th Avenue,80204,Denver,CO,39.738276,-105.038886,531550
1408,1115 West 10th Avenue,80204,Denver,CO,39.732375,-105.001974,667247
1409,2612 Champa Street,,,,,,
1410,104 West Iliff Avenue,,,,,,
1411,1925 Grove Street,80204,Denver,CO,39.747018,-105.027141,616973
1412,2629 Hanover Street,,,,,,
1413,3301 Navajo Street,80211,Denver,CO,39.763349,-105.00444,536430
1414,5498 East Warren Avenue,,,,,,
1415,4841 Julian Street,80221,Denver,CO,39.784648,-105.031395,445713
1416,1334 Zenobia Street,80204,Denver,CO,39.737396,-105.05189,477356
1417,19209 East 49th Avenue,,,,,,
1418,3800 West 44th Avenue,80211,Denver,CO,39.776071,-105.036887,
1419,2354 Glenarm Place,80205,Denver,CO,39.751026,-104.980783,397919
1420,2841 Champa Street,80205,Denver,CO,39.758526,-104.978874,704238
1421,3508 West 7th Avenue,80204,Denver,CO,39.727426,-105.034261,371373
1422,977 Cook Street,80206,Denver,CO,39.731918,-104.947595,667905
1423,2333 Tremont Place,80205,Denver,CO,39.750391,-104.980694,672121
1424,1376 Raleigh Street,80204,Denver,CO,39.73802,-105.041311,741726
1425,2851 West 24th Avenue,80211,Denver,CO,39.752693,-105.023355,699547
1426,3348 East Jewell Avenue,,,,,,
1427,2848 Albion Street,,,,,,
1428,3812 South Yosemite Street,80237,Denver,CO,39.646832,-104.882512,284601
1429,1941 Eliot Street,80219,Denver,CO,39.689651,-105.023472,369034
1430,21 Washington Street,80229,Denver,CO,39.845801,-104.97675,169673
1431,1821 West 38th Avenue,80211,Denver,CO,39.769422,-105.008581,326398
1432,7598 East 11th Avenue,80230,Denver,CO,39.732752,-104.899107,
1433,2663 West Amherst Avenue,,,,,,
1434,2967 Glencoe Street,,,,,,
1435,3425 Grove Street,80211,Denver,CO,39.765235,-105.027855,587439
1436,568 South Gaylord Street,,,,,,
1437,419 West 13th Avenue,80204,Denver,CO,39.737001,-104.993389,
1438,2810 Utica Street,80212,Denver,CO,39.757546,-105.045125,666769
1439,3000 Larimer Street,80205,Denver,CO,39.762323,-104.979963,
1440,2041 Lawrence Street,80205,Denver,CO,39.753055,-104.99121,
1441,3637 High Street,80205,Denver,CO,39.76768,-104.964906,798874
1442,3015 Lowell Boulevard,80211,Denver,CO,39.760545,-105.034921,1597133
1443,1336 Ulster Street,,,,,,
1444,2765 Osceola Street,80212,Denver,CO,39.757077,-105.038433,570947
1445,1674 Saint Paul Street,80206,Denver,CO,39.743437,-104.950972,931966
1446,3070 Cook Street,80210,Denver,CO,39.661306,-104.947132,771178
1447,2649 Wolff Street,80212,Denver,CO,39.75574,-105.048702,565588
1448,1630 South Sherman Street,80210,Denver,CO,39.68687,-104.984839,655055
1449,651 Holly Street,80220,Denver,CO,39.726648,-104.923105,481931
1450,2318 South Josephine Street,80210,Denver,CO,39.674404,-104.957551,777282
1451,2680 South Logan Street,,,,,,
1452,2622 Gaylord Street,80205,Denver,CO,39.754918,-104.960611,752702
1453,3491 West 30th Avenue,80211,Denver,CO,39.760501,-105.034219,559381
1454,4525 Raleigh Street,80212,Denver,CO,39.778803,-105.041884,
1455,4245 Kalamath Street,80211,Denver,CO,39.77489,-105.000916,392987
1456,2441 Eliot Street,80211,Denver,CO,39.753493,-105.023911,
1457,3878 Federal Boulevard,80211,Denver,CO,39.770704,-105.024716,513679
1458,2423 Lawrence Street,80205,Denver,CO,39.756419,-104.986639,501142
1459,3600 Monroe Street,80205,Denver,CO,39.767068,-104.944821,389009
1460,4161 Vrain Street,80212,Denver,CO,39.774042,-105.04657,916927
1461,3150 West 26th Avenue,80211,Denver,CO,39.754538,-105.028082,612133
1462,20 East Maple Avenue,80209,Denver,CO,39.713712,-104.986759,476410
1463,6646 West Hamilton Drive,80227,Lakewood,CO,39.654226,-105.068516,558996
1464,3537 Marion Street,80205,Denver,CO,39.766489,-104.972458,437584
1465,7500 East Quincy Avenue,80237,Denver,CO,39.637811,-104.90206,
1466,4036 West 16th Avenue,80204,Denver,CO,39.742485,-105.039836,665655
1467,2112 Clay Street,80211,Denver,CO,39.748981,-105.020092,662046
1468,1900 South Sherman Street,80210,Denver,CO,39.682001,-104.984873,730000
1469,3040 Blake Street,,,,,,
1470,834 Emerson Street,80209,Denver,CO,39.701358,-104.976588,631068
1471,852 Clarkson Street,80218,Denver,CO,39.730004,-104.977255,1104641
1472,18801 East 56th Avenue,,,,,,
1473,2627 West 26th Avenue,80211,Denver,CO,39.755099,-105.019747,648006
1474,1201 South Downing Street,80210,Denver,CO,39.694575,-104.973784,900825
1475,3151 West 24th Avenue,80211,Denver,CO,39.752692,-105.028144,945156
1476,2 South Grant Street,80209,Denver,CO,39.716419,-104.98344,463586
1477,3440 Sheridan Boulevard,80212,Denver,CO,39.765535,-105.052913,421012
1478,21097 East 52nd Avenue,,,,,,
1479,12781 Elmendorf Place,,,,,,
1480,211 South Humboldt Street,80209,Denver,CO,39.712644,-104.970179,775376
1481,252 Pennsylvania Street,80203,Denver,CO,39.720468,-104.981053,280433
1482,4995 Worchester Street,80239,Denver,CO,39.787777,-104.833437,336930
1483,246 Sherman Street,80203,Denver,CO,39.720223,-104.98466,773692
1484,4492 Zenobia Street,80212,Denver,CO,39.778087,-105.05174,440034
1485,2627 18th Street,80211,Denver,CO,39.761597,-105.008469,2644182
1486,2431 South Galapago Street,,,,,,
1487,2777 Mile High Stadium Circle,,,,,,
1488,534 West 4th Avenue,80223,Denver,CO,39.722256,-104.995036,469019
1489,4106 Osage Street,80211,Denver,CO,39.773286,-105.005059,785365
1490,2325 Dahlia Street,,,,,,
1491,2199 California Street,,,,,,
1492,2643 South Pearl Street,,,,,,
1493,4937 Quitman Street,80212,Denver,CO,39.786312,-105.040727,465030
1494,19774 East 40th Place,,,,,,
1495,18981 Cathay Street,,,,,,
1496,3225 Elizabeth Street,80205,Denver,CO,39.762501,-104.956478,597359
1497,1346 Garfield Street,,,,,,
1498,4411 Federal Boulevard,80211,Denver,CO,39.776895,-105.025688,
1499,3201 Stout Street,80205,Denver,CO,39.760094,-104.974941,560663
1500,84 Inca Street,80223,Denver,CO,39.718128,-104.997288,565155
1501,2123 High Street,,,,,,
1502,1175 South Clayton Street,80210,Denver,CO,39.695178,-104.954993,1311765
1503,1579 Osceola Street,80204,Denver,CO,39.742283,-105.038465,774001
1504,1060 Bannock Street,,,,,,
1505,1429 Knox Court,80204,Denver,CO,39.739105,-105.032593,361772
1506,5822 East Severn Place,,,,,,
1507,1610 Gaylord Street,,,,,,
1508,1974 South Clarkson Street,80210,Denver,CO,39.680754,-104.977771,1005833
1509,3120 Stuart Street,80212,Denver,CO,39.761551,-105.042518,1202651
1510,3139 Tejon Street,80211,Denver,CO,39.761546,-105.011467,378254
1511,3210 West 30th Avenue,80211,Denver,CO,39.760049,-105.028486,515693
1512,1184 South Beach Court,80219,Denver,CO,39.69531,-105.017165,348730
1513,4471 East Utah Place,,,,,,
1514,1010 Ogden Street,80218,Denver,CO,39.732342,-104.974956,643767
1515,21447 East 54th Place,,,,,,
1516,4519 East Montana Place,,,,,,
1517,1601 South Emerson Street,80210,Denver,CO,39.687374,-104.977185,900386
1518,1400 Arapahoe Street,,,,,,
1519,1011 West 14th Avenue,80204,Denver,CO,39.738595,-105.000662,449226
1520,992 Elm Street,,,,,,
1521,1327 South Humboldt Street,80210,Denver,CO,39.692397,-104.970221,818106
1522,2612 Champa Street,,,,,,
1523,2926 Akron Court,,,,,,
1524,3200 West 26th Avenue,80211,Denver,CO,39.754626,-105.028605,493084
1525,326 West 12th Avenue,,,,,,
1526,4320 Bryant Street,80211,Denver,CO,39.77581,-105.018536,567616
1527,2427 Gilpin Street,80205,Denver,CO,39.752527,-104.96753,583381
1528,1300 East 21st Avenue,80205,Denver,CO,39.747881,-104.972059,4358892
1529,156 Clay Street,80219,Denver,CO,39.719464,-105.020136,349438
1530,274 Detroit Street,,,,,,
1531,2313 West 46th Avenue,80211,Denver,CO,39.78041,-105.014966,519078
1532,1925 West 38th Avenue,80211,Denver,CO,39.769553,-105.010327,501811
1533,137 South Pearl Street,80209,Denver,CO,39.713984,-104.980707,660488
1534,4023 Zuni Street,,,,,,
1535,3037 West 37th Avenue,80211,Denver,CO,39.767667,-105.026397,947770
1536,3933 West Colfax Avenue,80204,Denver,CO,39.740337,-105.038529,
1537,3336 West 34th Avenue,80211,Denver,CO,39.764534,-105.030974,680010
1538,330 Santa Fe Drive,80223,Denver,CO,39.721602,-104.998285,558502
1539,1041 Acoma Street,,,,,,
1540,1711 South Pearl Street,,,,,,
1541,20371 East 41st Place,,,,,,
1542,2816 Umatilla Street,80211,Denver,CO,39.75744,-105.011529,435237
1543,1105 Eudora Street,80220,Denver,CO,39.731789,-104.931064,250786
1544,3750 West 46th Avenue,80211,Denver,CO,39.779985,-105.036729,670533
1545,2546 California Street,80205,Denver,CO,39.75404,-104.980238,362923
1546,166 South Logan Street,80209,Denver,CO,39.71349,-104.982368,
1547,2108 Federal Boulevard,80211,Denver,CO,39.749009,-105.02474,587478
1548,3791 East Iowa Avenue,,,,,,
1549,2533 West 32nd Avenue,80211,Denver,CO,39.762255,-105.018208,1083886
1550,3101 Walnut Street,80205,Denver,CO,39.764122,-104.980193,
1551,1136 Bannock Street,80204,Denver,CO,39.730903,-104.990823,
1552,1136 Cherokee Street,80204,Denver,CO,39.734487,-104.991283,1657582
1553,941 Lafayette Street,80218,Denver,CO,39.7312,-104.97096,869328
1554,1010 Bannock Street,,,,,,
1555,2068 East 38th Avenue,,,,,,
1556,3798 West 27th Avenue,,,,,,
1557,3556 West 36th Avenue,80212,Denver,CO,39.76639,-105.046334,514101
1558,1412 East 14th Avenue,80218,Denver,CO,39.738256,-104.970265,976626
1559,5033 Wyandot Street,80221,Denver,CO,39.788125,-105.015005,436531
1560,2085 South Xavier Street,80219,Denver,CO,39.679546,-105.050332,397342
1561,1345 Monroe Street,80206,Denver,CO,39.737592,-104.945371,
1562,5089 West 16th Avenue,,,,,,
1563,1628 Zenobia Street,80204,Denver,CO,39.742509,-105.051781,605574
1564,1614 Yates Street,80204,Denver,CO,39.742723,-105.050572,470457
1565,696 East 8th Avenue,,,,,,
1566,1517 East Virginia Avenue,80209,Denver,CO,39.707726,-104.969377,560189
1567,1573 Harrison Street,,,,,,
1568,226 West 3rd Avenue,80223,Denver,CO,39.720726,-104.991609,609958
1569,729 South Williams Street,,,,,,
1570,3337 Williams Street,80205,Denver,CO,39.764009,-104.966289,350275
1571,1816 West 48th Avenue,,,,,,
1572,5562 Joplin Street,80239,Denver,CO,39.796825,-104.802225,339379
1573,1028 Acoma Street,,,,,,
1574,3536 West 41st Avenue,80211,Denver,CO,39.772805,-105.033905,646572
1575,5208 East Missouri Avenue,,,,,,
1576,2751 Hazel Court,80211,Denver,CO,39.757076,-105.027912,814714
1577,2727 Columbine Street,,,,,,
1578,2949 Race Street,80205,Denver,CO,39.759193,-104.963819,479678
1579,226 West 12th Avenue,,,,,,
1580,1295 East 29th Avenue,80205,Denver,CO,39.758426,-104.972452,907517
1581,2609 East 12th Avenue,,,,,,
1582,1330 Fox Street,80204,Denver,CO,39.737611,-104.994976,
1583,4988 Federal Boulevard,,,,,,
1584,340 Fox Street,80223,Denver,CO,39.721747,-104.994858,428998
1585,154 South Pennsylvania Street,80209,Denver,CO,39.713682,-104.981212,534147
1586,823 Cook Street,80206,Denver,CO,39.729612,-104.947599,839796
1587,4650 Columbine (1-way thru 4/20),,,,,,
1588,2226 Emerson Street,80205,Denver,CO,39.749996,-104.975428,735061
1589,357 Madison Street,80206,Denver,CO,39.7221,-104.946512,3207030
1590,766 King Street,80204,Denver,CO,39.72899,-105.033382,388648
1591,1848 West 35th Avenue,80211,Denver,CO,39.765551,-105.009213,443537
1592,3842 Quivas Street,80211,Denver,CO,39.770132,-105.00772,788920
1593,2823 West 28th Avenue,80211,Denver,CO,39.75755,-105.022921,
1594,1395 Tennyson Street,80204,Denver,CO,39.738297,-105.044333,536014
1595,624 Lowell Boulevard,80204,Denver,CO,39.726675,-105.03479,388234
1596,1950 East Amherst Avenue,80210,Denver,CO,39.665817,-104.964533,651956
1597,2595 South Franklin Street,80210,Denver,CO,39.669738,-104.969101,510344
1598,781 Oneida Street,80220,Denver,CO,39.728839,-104.908556,723480
1599,2601 Elizabeth Street,80205,Denver,CO,39.7551,-104.956,484468
1600,3940 West Colfax Avenue,80204,Denver,CO,39.736479,-105.038624,525155
1601,4575 West 34th Avenue,80212,Denver,CO,39.765051,-105.046654,703650
1602,7808 East 29th Avenue,,,,,,
1603,4460 Irving Street,80211,Denver,CO,39.77774,-105.029582,1403306
1604,543 Bannock Street,80204,Denver,CO,39.724998,-104.99121,652978
1605,1841 South Filbert Court,,,,,,
1606,1039 West 13th Avenue,80204,Denver,CO,39.737059,-105.001317,
1607,4485 Perry Street,80212,Denver,CO,39.778091,-105.039555,507848
1608,788 West 8th Avenue,80204,Denver,CO,39.728696,-104.997247,
1609,5455 East Thrill Place,80207,Denver,CO,39.763124,-104.92447,380642
1610,1835 Gaylord Street,80206,Denver,CO,39.745486,-104.96134,931638
1611,4321 Bryant Street,80211,Denver,CO,39.775819,-105.019392,578715
1612,3000 Brighton Boulevard,,,,,,
1613,3354 Vallejo Street,80211,Denver,CO,39.764201,-105.012442,858288
1614,1062 East Jewell Avenue,,,,,,
1615,851 South Oneida Street,80224,Denver,CO,39.703048,-104.908937,611608
1616,1862 South Jersey Way,,,,,,
1617,2800 Harrison Street,80210,Denver,CO,39.665329,-104.941444,445401
1618,328 South Logan Street,80209,Denver,CO,39.710513,-104.982354,484479
1619,800 Lincoln Street,,,,,,
1620,4722 East 14th Avenue,,,,,,
1621,3756 Lafayette Street,80205,Denver,CO,39.769232,-104.970491,348106
1622,3001 Zenobia Street,80212,Denver,CO,39.760422,-105.052397,725768
1623,45 South Pennsylvania Street,80209,Denver,CO,39.715723,-104.981783,416669
1624,1545 Champa Street,,,,,,
1625,3376 Stuart Street,80212,Denver,CO,39.765316,-105.04253,647133
1626,2149 High Street,80205,Denver,CO,39.749102,-104.965049,814757
1627,3055 West 24th Avenue,80211,Denver,CO,39.75269,-105.026579,740077
1628,4965 Zuni Street,80221,Denver,CO,39.786868,-105.016173,359779
1629,3495 Lawrence Street,80205,Denver,CO,39.766255,-104.974112,519844
1630,2950 West 44th Avenue,,,,,,
1631,3946 Perry Street,80212,Denver,CO,39.772337,-105.038996,472256
1632,4292 Green Court,80211,Denver,CO,39.776462,-105.026138,724563
1633,4821 Perry Street,80212,Denver,CO,39.784231,-105.039564,430165
1634,534 West 4th Avenue,80223,Denver,CO,39.722256,-104.995036,469019
1635,3381 West 33rd Avenue,80211,Denver,CO,39.764115,-105.031956,446427
1636,5180 Granby Street,80239,Denver,CO,39.787061,-104.81027,356741
1637,502 25th Street,80205,Denver,CO,39.752403,-104.980591,
1638,2629 Clayton Street,80205,Denver,CO,39.755036,-104.95524,574756
1639,3499 East 31st Avenue,80205,Denver,CO,39.760829,-104.94617,504205
1640,2143 Grove Street,80211,Denver,CO,39.749761,-105.027184,844177
1641,8611 Beekman Place,80216,Denver,CO,39.789609,-104.886579,
1642,4511 Vrain Street,80212,Denver,CO,39.77866,-105.046593,546170
1643,2811 Federal Boulevard,80211,Denver,CO,39.757564,-105.025664,604484
1644,1132 Marion Street,80218,Denver,CO,39.734231,-104.971491,894998
1645,3571 West Walsh Place,80219,Denver,CO,39.703365,-105.034182,322059
1646,3281 Steele Street,,,,,,
1647,2411 East 5th Avenue,80206,Denver,CO,39.724499,-104.957889,2573142
1648,4559 Meade Street,80211,Denver,CO,39.779372,-105.036088,430106
1649,1138 Marion Street,80218,Denver,CO,39.734345,-104.971492,
1650,754 Birch Street,80220,Denver,CO,39.728428,-104.935718,777798
1651,125 South Bryant Street,80219,Denver,CO,39.714396,-105.018308,365399
1652,3504 High Street,,,,,,
1653,1598 West 51st Avenue,80221,Denver,CO,39.788396,-105.006185,359100
1654,2032 West 33rd Avenue,80211,Denver,CO,39.763101,-105.011738,901334
1655,3704 Gilpin Street,80205,Denver,CO,39.76841,-104.966835,409159
1656,2663 Martin Luther King Jr Boulevard,,,,,,
1657,3255 South Parker Road,80014,Denver,CO,39.657698,-104.850155,
1658,3071 Garfield Street,,,,,,
1659,1335 Milwaukee Street,80206,Denver,CO,39.737464,-104.951986,834106
1660,3267 Leyden Street,,,,,,
1661,3000 California Street,,,,,,
1662,3120 Irving Street,,,,,,
1663,2400 Washington Street,80205,Denver,CO,39.75214,-104.978009,596701
1664,3249 Madison Street,80205,Denver,CO,39.762895,-104.946722,389605
1665,3315 West 21st Avenue,80211,Denver,CO,39.749023,-105.030369,937856
1666,5450 Evans Place,,,,,,
1667,1653 Boulder Street,80211,Denver,CO,39.760155,-105.009674,401002
1668,2650 18th Street,,,,,,
1669,2050 Ogden Street,80205,Denver,CO,39.748561,-104.974207,
1670,3353 Lawrence Street,80205,Denver,CO,39.765347,-104.975282,676303
1671,1015 Tennyson Street,80204,Denver,CO,39.733181,-105.044327,609110
1672,3712 Glencoe Street,,,,,,
1673,3651 High Street,80205,Denver,CO,39.767891,-104.965048,434534
1674,1064 South York Street,80209,Denver,CO,39.697143,-104.960266,992004
1675,1050 Sherman Street,80203,Denver,CO,39.732933,-104.984222,
1676,1226 Quince Street,,,,,,
1677,100 East 11th Avenue,80203,Denver,CO,39.743007,-104.983102,
1678,1717 Federal Boulevard,,,,,,
1679,4322 West 35th Avenue,80212,Denver,CO,39.765585,-105.043683,
1680,3601 Raleigh Street,80212,Denver,CO,39.76673,-105.041964,732189
1681,1410 York Street,80206,Denver,CO,39.73876,-104.959468,
1682,1254 Washington Street,80203,Denver,CO,39.736176,-104.978409,689861
1683,1340 Quince Street,,,,,,
1684,718 South Krameria Street,,,,,,
1685,2734 West 35th Avenue,80211,Denver,CO,39.765199,-105.021325,1174486
1686,2305 Emerson Street,,,,,,
1687,1816 South Clarkson Street,80210,Denver,CO,39.683642,-104.977782,860323
1688,3304 West 19th Avenue,80204,Denver,CO,39.746195,-105.030316,617337
1689,1072 Pearl Street,80203,Denver,CO,39.733351,-104.979673,
1690,1465 South Vine Street,80210,Denver,CO,39.690002,-104.963215,1336927
1691,3229 West 20th Avenue,80211,Denver,CO,39.747733,-105.029026,788771
1692,2105 West 34th Avenue,80211,Denver,CO,39.764669,-105.012129,605410
1693,2910 Gaylord Street,80205,Denver,CO,39.758531,-104.960631,635234
1694,2700 California Street,80205,Denver,CO,39.755623,-104.978208,251300
1695,2906 East 40th Avenue,,,,,,
1696,20089 East 48th Place,,,,,,
1697,9199 East Mississippi Avenue,,,,,,
1698,1200 Josephine Street,80206,Denver,CO,39.735315,-104.95837,854055
1699,1839 South Kearney Street,80224,Denver,CO,39.683299,-104.917432,472358
1700,436 South Corona Street,80209,Denver,CO,39.708635,-104.974218,532267
1701,2823 Wyandot Street,80211,Denver,CO,39.75751,-105.014838,760054
1702,3715 Zenobia Street,80212,Denver,CO,39.767876,-105.052396,578150
1703,4502 Elm Court,80211,Denver,CO,39.778551,-105.022502,550348
